[
 {
  "lat": 43.662222222,
  "lng": -79.426666666,
  "name": "Ossington",
  "desc": "station on the Bloor–Danforth subway line in Toronto, Ontario, Canada",
  "qid": "Q1041831"
 },
 {
  "lat": 43.659166666,
  "lng": -79.442777777,
  "name": "Lansdowne",
  "desc": "station on the Bloor–Danforth subway line in Toronto, Ontario, Canada",
  "qid": "Q1041863"
 },
 {
  "lat": 43.655555555,
  "lng": -79.459722222,
  "name": "Keele",
  "desc": "subway station on Line 2 Bloor–Danforth in Toronto, Ontario, Canada",
  "qid": "Q1041869"
 },
 {
  "lat": 43.645277777,
  "lng": -79.524444444,
  "name": "Islington",
  "desc": "station on the Bloor–Danforth subway line in Toronto, Ontario, Canada",
  "qid": "Q1041874"
 },
 {
  "lat": 43.766944444,
  "lng": -79.276388888,
  "name": "Ellesmere",
  "desc": "former rapid transit station on Line 3 Scarborough in Toronto, Ontario, Canada",
  "qid": "Q1042102"
 },
 {
  "lat": 43.770416666,
  "lng": -79.271944444,
  "name": "Midland",
  "desc": "former rapid transit station on Line 3 Scarborough in Toronto, Ontario, Canada",
  "qid": "Q1042111"
 },
 {
  "lat": 43.6825,
  "lng": -79.330277777,
  "name": "Greenwood",
  "desc": "station on the Bloor–Danforth line of the Toronto subway system",
  "qid": "Q1042118"
 },
 {
  "lat": 43.7325,
  "lng": -79.263611111,
  "name": "Kennedy",
  "desc": "station on Line 2 Bloor–Danforth subway line in Toronto, Ontario, Canada",
  "qid": "Q1042126"
 },
 {
  "lat": 43.680972222,
  "lng": -79.337777777,
  "name": "Donlands",
  "desc": "subway station on the Bloor–Danforth line of the Toronto, Ontario, Canada subway",
  "qid": "Q1042137"
 },
 {
  "lat": 43.689027777,
  "lng": -79.301666666,
  "name": "Main Street",
  "desc": "station on the Bloor–Danforth line of the subway system in Toronto, Canada",
  "qid": "Q1042144"
 },
 {
  "lat": 43.695,
  "lng": -79.288611111,
  "name": "Victoria Park",
  "desc": "subway station on Line 2 Bloor–Danforth in Toronto, Ontario, Canada",
  "qid": "Q1042160"
 },
 {
  "lat": 43.711388888,
  "lng": -79.279722222,
  "name": "Warden",
  "desc": "station on the Bloor–Danforth subway line in Toronto, Ontario, Canada",
  "qid": "Q1042170"
 },
 {
  "lat": 43.7710725,
  "lng": -79.365634,
  "name": "Leslie",
  "desc": "station on the Sheppard subway line in Toronto, Ontario, Canada",
  "qid": "Q1042178"
 },
 {
  "lat": 43.686388888,
  "lng": -79.312777777,
  "name": "Woodbine",
  "desc": "station on Line 2 Bloor–Danforth in Toronto, Ontario, Canada",
  "qid": "Q1042190"
 },
 {
  "lat": 43.775347,
  "lng": -79.3459439,
  "name": "Don Mills",
  "desc": "station on the Sheppard subway line in Toronto, Ontario, Canada",
  "qid": "Q1042199"
 },
 {
  "lat": 43.678333333,
  "lng": -79.3525,
  "name": "Chester",
  "desc": "subway station on Line 2 Bloor–Danforth of the Toronto subway",
  "qid": "Q1042207"
 },
 {
  "lat": 43.672222222,
  "lng": -79.376388888,
  "name": "Sherbourne",
  "desc": "station on the Bloor–Danforth subway line in Toronto, Ontario, Canada",
  "qid": "Q1042227"
 },
 {
  "lat": 43.68,
  "lng": -79.345025,
  "name": "Pape",
  "desc": "station on the Bloor–Danforth subway line in Toronto",
  "qid": "Q1042388"
 },
 {
  "lat": 43.750277777,
  "lng": -79.270277777,
  "name": "Lawrence East",
  "desc": "station on the Scarborough light metro line in Toronto, Ontario, Canada",
  "qid": "Q1042395"
 },
 {
  "lat": 43.774930555,
  "lng": -79.251666666,
  "name": "McCowan",
  "desc": "former rapid transit station on Line 3 Scarborough in Toronto, Ontario, Canada",
  "qid": "Q1042459"
 },
 {
  "lat": 43.774444444,
  "lng": -79.2575,
  "name": "Scarborough Centre",
  "desc": "station on the Scarborough light metro line in Toronto, Ontario, Canada",
  "qid": "Q1042639"
 },
 {
  "lat": 43.678116666,
  "lng": -79.409341666,
  "name": "Casa Loma",
  "desc": "mansion in Toronto, Canada.",
  "qid": "Q1046446"
 },
 {
  "lat": 43.6486,
  "lng": -79.3817,
  "name": "First Canadian Place",
  "desc": "skyscraper in Toronto, Ontario, Canada",
  "qid": "Q1052475"
 },
 {
  "lat": 43.6565367,
  "lng": -79.3810223,
  "name": "TMU station",
  "desc": "subway station on the Yonge–University line in Toronto, Ontario, Canada",
  "qid": "Q1074565"
 },
 {
  "lat": 43.7889,
  "lng": -79.2792,
  "name": "Agincourt Collegiate Institute",
  "desc": "public high school in Toronto, Ontario, Canada",
  "qid": "Q4692571"
 },
 {
  "lat": 43.7861,
  "lng": -79.2844,
  "name": "Agincourt GO Station",
  "desc": "GO Transit railway station in Ontario, Canada",
  "qid": "Q4692569"
 },
 {
  "lat": 43.79,
  "lng": -79.27,
  "name": "Agincourt",
  "desc": "neighbourhood in Toronto, Ontario, Canada",
  "qid": "Q4692573"
 },
 {
  "lat": 43.8092,
  "lng": -79.2719,
  "name": "Albert Campbell Collegiate Institute",
  "desc": "public secondary school in Toronto, Canada",
  "qid": "Q4709873"
 },
 {
  "lat": 43.6,
  "lng": -79.54,
  "name": "Alderwood",
  "desc": "human settlement in Toronto, Ontario, Canada",
  "qid": "Q4713776"
 },
 {
  "lat": 43.6631,
  "lng": -79.3818,
  "name": "Alexander Street Baptist Church",
  "desc": "church building in Toronto, Canada",
  "qid": "Q4720168"
 },
 {
  "lat": 43.65,
  "lng": -79.4,
  "name": "Alexandra Park",
  "desc": "human settlement in Toronto, Ontario, Canada",
  "qid": "Q4720721"
 },
 {
  "lat": 43.6589,
  "lng": -79.3709,
  "name": "Allandale",
  "desc": "historic house in Toronto, Canada",
  "qid": "Q4731083"
 },
 {
  "lat": 43.6528,
  "lng": -79.3649,
  "name": "Alumnae Theatre Company",
  "desc": "theatre company based in Toronto, Ontario",
  "qid": "Q4737423"
 },
 {
  "lat": 43.7006,
  "lng": -79.4903,
  "name": "Amesbury",
  "desc": "neighbourhood in Toronto, Ontario, Canada",
  "qid": "Q4745898"
 },
 {
  "lat": 43.667777777,
  "lng": -79.393055555,
  "name": "Annesley Hall",
  "desc": "student residence of Victoria University on the University of Toronto St. George campus",
  "qid": "Q4769020"
 },
 {
  "lat": 43.6543,
  "lng": -79.3994,
  "name": "Anshei Minsk",
  "desc": "synagogue in Toronto, Ontario",
  "qid": "Q4770667"
 },
 {
  "lat": 43.6804,
  "lng": -79.4808,
  "name": "Archbishop Romero Catholic Secondary School",
  "desc": "bill 30 catholic high school in Rockcliffe–Smythe, Toronto, Ontario, Canada",
  "qid": "Q4785637"
 },
 {
  "lat": 43.6804,
  "lng": -79.4085,
  "name": "Ardwold",
  "desc": "house in Toronto, Canada",
  "qid": "Q4788332"
 },
 {
  "lat": 43.743,
  "lng": -79.429,
  "name": "Armour Heights",
  "desc": "neighborhood in Toronto, Ontario, Canada",
  "qid": "Q4793777"
 },
 {
  "lat": 43.7226,
  "lng": -79.4314,
  "name": "Asbury & West United Church",
  "desc": "church in Canada., Canada",
  "qid": "Q4803733"
 },
 {
  "lat": 43.6586,
  "lng": -79.3269,
  "name": "Leslie Barns",
  "desc": "Streetcar maintenance and storage facility in Toronto",
  "qid": "Q4804632"
 },
 {
  "lat": 43.775,
  "lng": -79.4383,
  "name": "Associated Hebrew Schools of Toronto",
  "desc": "private school in Toronto, Ontario, Canada",
  "qid": "Q4809201"
 },
 {
  "lat": 43.641388888,
  "lng": -79.389166666,
  "name": "Rogers Centre",
  "desc": "stadium in Toronto, Ontario, Canada; home venue of the Toronto Blue Jays",
  "qid": "Q76318"
 },
 {
  "lat": 43.6275,
  "lng": -79.396111111,
  "name": "Billy Bishop Toronto City Airport",
  "desc": "regional airport in Toronto, Ontario, Canada",
  "qid": "Q117708"
 },
 {
  "lat": 43.642752777,
  "lng": -79.387147222,
  "name": "CN Tower",
  "desc": "communications and observation tower in Toronto, Canada",
  "qid": "Q134883"
 },
 {
  "lat": 43.652,
  "lng": -79.3812,
  "name": "Simpson Tower",
  "desc": "skyscraper",
  "qid": "Q153625"
 },
 {
  "lat": 43.6913,
  "lng": -79.3278,
  "name": "East York",
  "desc": "former municipality in Toronto, Ontario, Canada",
  "qid": "Q167585"
 },
 {
  "lat": 43.759,
  "lng": -79.235,
  "name": "Taber Hill",
  "desc": "cemetery",
  "qid": "Q180100"
 },
 {
  "lat": 43.6958,
  "lng": -79.3847,
  "name": "Mount Pleasant Cemetery",
  "desc": "cemetery in Toronto, Canada",
  "qid": "Q2904018"
 },
 {
  "lat": 43.71793056,
  "lng": -79.37768611,
  "name": "CNIB Foundation",
  "desc": "Canadian National Institute for the Blind",
  "qid": "Q2906450"
 },
 {
  "lat": 43.6655,
  "lng": -79.4104,
  "name": "Hot Docs Ted Rogers Cinema",
  "desc": "cinema in Toronto, Ontario, Canada",
  "qid": "Q2907054"
 },
 {
  "lat": 43.650555555,
  "lng": -79.385833333,
  "name": "Canadian Opera Company",
  "desc": "opera company based in Toronto, Ontario",
  "qid": "Q2915268"
 },
 {
  "lat": 43.6525,
  "lng": -79.383611111,
  "name": "Nathan Phillips Square",
  "desc": "plaza in front of Toronto, Ontario's City Hall named in honour of the above",
  "qid": "Q2915521"
 },
 {
  "lat": 43.655,
  "lng": -79.377,
  "name": "St. Michael's Cathedral",
  "desc": "cathedral in Toronto, Canada",
  "qid": "Q2942399"
 },
 {
  "lat": 43.603485,
  "lng": -79.52011,
  "name": "Ford Performance Centre",
  "desc": "a hockey facility located in the Etobicoke district of Toronto, Ontario, Canada",
  "qid": "Q2944847"
 },
 {
  "lat": 43.666,
  "lng": -79.3865,
  "name": "Canadian Music Centre",
  "desc": "arts organization based in Toronto, Ontario, Canada",
  "qid": "Q2945374"
 },
 {
  "lat": 43.64455,
  "lng": -79.41761,
  "name": "Centre for Addiction and Mental Health",
  "desc": "hospital at multiple locations in Ontario, Canada",
  "qid": "Q2945513"
 },
 {
  "lat": 43.6529,
  "lng": -79.398,
  "name": "Chinatown",
  "desc": "neighborhood in Toronto, Ontario, Canada",
  "qid": "Q2963746"
 },
 {
  "lat": 43.6647,
  "lng": -79.4208,
  "name": "Christie Pits",
  "desc": "public recreational area in Toronto, Canada",
  "qid": "Q2965849"
 },
 {
  "lat": 43.662917,
  "lng": -79.395746,
  "name": "University of Toronto",
  "desc": "public research university in the Greater Toronto Area of Ontario, Canada",
  "qid": "Q180865"
 },
 {
  "lat": 43.638888888,
  "lng": -79.403611111,
  "name": "Fort York",
  "desc": "historic site in Toronto, Canada",
  "qid": "Q204083"
 },
 {
  "lat": 43.6732,
  "lng": -79.3861,
  "name": "Studio Building",
  "desc": "studio",
  "qid": "Q211631"
 },
 {
  "lat": 43.6536,
  "lng": -79.3795,
  "name": "205 Yonge Street",
  "desc": "architectural structure",
  "qid": "Q212596"
 },
 {
  "lat": 43.6767,
  "lng": -79.6306,
  "name": "Toronto Pearson International Airport",
  "desc": "international airport in Toronto, Canada",
  "qid": "Q242066"
 },
 {
  "lat": 43.664166666,
  "lng": -79.418333333,
  "name": "Christie",
  "desc": "subway station on the Bloor–Danforth line of the Toronto, Ontario, Canada subway",
  "qid": "Q367503"
 },
 {
  "lat": 43.6489494,
  "lng": -79.3777538,
  "name": "King",
  "desc": "station on Line 1 of the Toronto subway",
  "qid": "Q389687"
 },
 {
  "lat": 43.643333333,
  "lng": -79.379166666,
  "name": "Scotiabank Arena",
  "desc": "indoor arena in Toronto, Canada",
  "qid": "Q406972"
 },
 {
  "lat": 43.6525,
  "lng": -79.381666666,
  "name": "Old City Hall",
  "desc": "building in Toronto",
  "qid": "Q439501"
 },
 {
  "lat": 43.677,
  "lng": -79.47,
  "name": "Union Pearson Express",
  "desc": "airport rail link in Ontario, Canada",
  "qid": "Q497520"
 },
 {
  "lat": 43.7387,
  "lng": -79.3074,
  "name": "Church of St. Jude",
  "desc": "church",
  "qid": "Q5117269"
 },
 {
  "lat": 43.658,
  "lng": -79.4604,
  "name": "Church of St. Martin-in-the-Fields, Toronto",
  "desc": "church",
  "qid": "Q5117277"
 },
 {
  "lat": 43.659066,
  "lng": -79.413697,
  "name": "Church of St. Mary Magdalene",
  "desc": "Anglican church in Toronto, Ontario, Canada",
  "qid": "Q5117294"
 },
 {
  "lat": 43.6789,
  "lng": -79.3458,
  "name": "Church of the Holy Name, Toronto",
  "desc": "church in Ontario, Canada",
  "qid": "Q5117917"
 },
 {
  "lat": 43.6769,
  "lng": -79.3979,
  "name": "Church of the Messiah",
  "desc": "church in Toronto, Ontario",
  "qid": "Q5117993"
 },
 {
  "lat": 43.669071,
  "lng": -79.393997,
  "name": "Church of the Redeemer",
  "desc": "Anglican church building in Toronto, Ontario, Canada",
  "qid": "Q5118031"
 },
 {
  "lat": 43.627638888,
  "lng": -79.418194444,
  "name": "Cinesphere",
  "desc": "cinema in Toronto, Ontario, Canada",
  "qid": "Q5120894"
 },
 {
  "lat": 43.6674639,
  "lng": -79.4011503,
  "name": "Citizen Lab",
  "desc": "research organization based in Canada",
  "qid": "Q5122568"
 },
 {
  "lat": 43.64,
  "lng": -79.3952,
  "name": "CityPlace",
  "desc": "neighbourhood in Toronto, Ontario, Canada",
  "qid": "Q5122973"
 },
 {
  "lat": 43.71,
  "lng": -79.291,
  "name": "Clairlea",
  "desc": "human settlement in Scarborough, Ontario, Canada",
  "qid": "Q5125382"
 },
 {
  "lat": 43.742,
  "lng": -79.617,
  "name": "Clairville, Toronto",
  "desc": "neighborhood in Toronto, Ontario, Canada",
  "qid": "Q5125399"
 },
 {
  "lat": 43.75,
  "lng": -79.45,
  "name": "Clanton Park",
  "desc": "human settlement in Toronto, Ontario, Canada",
  "qid": "Q5125829"
 },
 {
  "lat": 43.722,
  "lng": -79.231,
  "name": "Cliffcrest",
  "desc": "human settlement in Scarborough, Ontario, Canada",
  "qid": "Q5132820"
 },
 {
  "lat": 43.71,
  "lng": -79.243,
  "name": "Cliffside, Toronto",
  "desc": "human settlement in Scarborough, Ontario, Canada",
  "qid": "Q5133102"
 },
 {
  "lat": 43.6314,
  "lng": -79.555,
  "name": "Cloverdale Mall",
  "desc": "shopping mall in Toronto",
  "qid": "Q5135953"
 },
 {
  "lat": 43.665694444,
  "lng": -79.380955555,
  "name": "Church and Wellesley",
  "desc": "neighbourhood in Toronto",
  "qid": "Q1089761"
 },
 {
  "lat": 43.644885,
  "lng": -79.383119,
  "name": "Citigroup Place",
  "desc": "architectural structure",
  "qid": "Q1093364"
 },
 {
  "lat": 43.653333333,
  "lng": -79.383888888,
  "name": "Toronto City Hall",
  "desc": "city hall in Canada",
  "qid": "Q1093941"
 },
 {
  "lat": 43.654166666,
  "lng": -79.379027777,
  "name": "Massey Hall",
  "desc": "concert hall in Toronto, Canada",
  "qid": "Q1122776"
 },
 {
  "lat": 43.646944444,
  "lng": -79.377222222,
  "name": "Hockey Hall of Fame",
  "desc": "sports museum in downtown Toronto",
  "qid": "Q1136687"
 },
 {
  "lat": 43.645,
  "lng": -79.387,
  "name": "Ritz-Carlton Toronto",
  "desc": "skyscraper in Toronto, Canada",
  "qid": "Q1143174"
 },
 {
  "lat": 43.649472222,
  "lng": -79.529666666,
  "name": "German International School Toronto",
  "desc": "private school in Toronto, Ontario, Canada",
  "qid": "Q1203951"
 },
 {
  "lat": 43.6457,
  "lng": -79.385,
  "name": "RBC Centre",
  "desc": "skyscraper in Toronto, Canada",
  "qid": "Q1224878"
 },
 {
  "lat": 43.760969,
  "lng": -79.40996,
  "name": "Hullmark Centre",
  "desc": "building in Toronto",
  "qid": "Q1233810"
 },
 {
  "lat": 43.6479,
  "lng": -79.3808,
  "name": "Toronto-Dominion Centre",
  "desc": "cluster of buildings in Toronto, Ontario, Canada",
  "qid": "Q1239847"
 },
 {
  "lat": 43.653888888,
  "lng": -79.380277777,
  "name": "Toronto Eaton Centre",
  "desc": "Shopping mall and office complex in Toronto, Ontario, Canada",
  "qid": "Q1278419"
 },
 {
  "lat": 43.682351,
  "lng": -79.41187,
  "name": "1995 Russell Hill subway accident",
  "desc": "deadly Toronto Subway train collision",
  "qid": "Q1312430"
 },
 {
  "lat": 43.6466,
  "lng": -79.3864,
  "name": "Roy Thomson Hall",
  "desc": "concert hall in Toronto, Canada",
  "qid": "Q1315374"
 },
 {
  "lat": 43.6492,
  "lng": -79.3794,
  "name": "Scotia Plaza",
  "desc": "Office building in Toronto, Ontario",
  "qid": "Q1327514"
 },
 {
  "lat": 43.6702,
  "lng": -79.3865,
  "name": "Number One Bloor",
  "desc": "skyscraper",
  "qid": "Q1338561"
 },
 {
  "lat": 43.6456424,
  "lng": -79.3802085,
  "name": "Union",
  "desc": "Toronto subway station",
  "qid": "Q850811"
 },
 {
  "lat": 43.633333333,
  "lng": -79.416666666,
  "name": "Canadian National Exhibition",
  "desc": "annual festival and agricultural fair in Toronto, Canada",
  "qid": "Q857399"
 },
 {
  "lat": 43.6471,
  "lng": -79.38705,
  "name": "Canada's Walk of Fame",
  "desc": "street in Toronto, Ontario, Canada",
  "qid": "Q857933"
 },
 {
  "lat": 43.6707855,
  "lng": -79.3856867,
  "name": "Bloor–Yonge",
  "desc": "subway station on the Bloor–Danforth and Yonge-University-Spadina line of the Toronto, Ontario, Canada subway",
  "qid": "Q885413"
 },
 {
  "lat": 43.67026,
  "lng": -79.38677,
  "name": "Bloor Street",
  "desc": "major thoroughfare in Toronto",
  "qid": "Q885416"
 },
 {
  "lat": 43.6397,
  "lng": -79.4326,
  "name": "St. John's Cathedral",
  "desc": "cathedral in Toronto",
  "qid": "Q913830"
 },
 {
  "lat": 43.65,
  "lng": -79.38,
  "name": "PATH",
  "desc": "network of pedestrian tunnels in Toronto",
  "qid": "Q917121"
 },
 {
  "lat": 43.6525,
  "lng": -79.3817,
  "name": "Old Toronto",
  "desc": "city district",
  "qid": "Q919169"
 },
 {
  "lat": 43.67675,
  "lng": -79.358611111,
  "name": "Broadview",
  "desc": "subway station on the Bloor–Danforth line of the Toronto, Ontario, Canada subway",
  "qid": "Q922768"
 },
 {
  "lat": 43.646944444,
  "lng": -79.378611111,
  "name": "Brookfield Place",
  "desc": "office complex in downtown Toronto, Ontario, Canada",
  "qid": "Q929051"
 },
 {
  "lat": 43.6506,
  "lng": -79.3597,
  "name": "Distillery District",
  "desc": "warehouse district in Toronto, Canada",
  "qid": "Q934422"
 },
 {
  "lat": 43.6532,
  "lng": -79.3619,
  "name": "Little Trinity Anglican Church",
  "desc": "church",
  "qid": "Q948275"
 },
 {
  "lat": 43.701,
  "lng": -79.5197,
  "name": "Weston",
  "desc": "neighborhood in Toronto",
  "qid": "Q962866"
 },
 {
  "lat": 43.7440391,
  "lng": -79.406657,
  "name": "York Mills",
  "desc": "subway station on the Yonge–University–Spadina line of the Toronto, Ontario, Canada subway",
  "qid": "Q964935"
 },
 {
  "lat": 43.6624,
  "lng": -79.3917,
  "name": "Ontario Legislative Building",
  "desc": "Legislative building on Ontario",
  "qid": "Q980270"
 },
 {
  "lat": 43.649,
  "lng": -79.382,
  "name": "Financial District",
  "desc": "central business district in Toronto",
  "qid": "Q1002871"
 },
 {
  "lat": 43.6161,
  "lng": -79.5125,
  "name": "Etobicoke",
  "desc": "city district of Toronto, Canada",
  "qid": "Q1020159"
 },
 {
  "lat": 43.6703,
  "lng": -79.3911,
  "name": "Yorkville",
  "desc": "neighbourhood in Toronto, Ontario, Canada",
  "qid": "Q1022897"
 },
 {
  "lat": 43.7737,
  "lng": -79.2446,
  "name": "Scarborough",
  "desc": "district in Toronto, Ontario, Canada",
  "qid": "Q1025401"
 },
 {
  "lat": 43.6517,
  "lng": -79.3875,
  "name": "Canada Life Building",
  "desc": "architectural structure",
  "qid": "Q1031987"
 },
 {
  "lat": 43.643,
  "lng": -79.3674,
  "name": "Sugar Beach",
  "desc": "Urban beach",
  "qid": "Q1032021"
 },
 {
  "lat": 43.7061229,
  "lng": -79.39853,
  "name": "Eglinton",
  "desc": "Toronto subway station",
  "qid": "Q1040637"
 },
 {
  "lat": 43.645277777,
  "lng": -79.380555555,
  "name": "Union Station",
  "desc": "railway station in Toronto, Ontario, Canada",
  "qid": "Q511316"
 },
 {
  "lat": 43.689829,
  "lng": -79.478066,
  "name": "York",
  "desc": "former municipality in Ontario, Canada",
  "qid": "Q520484"
 },
 {
  "lat": 43.635833333,
  "lng": -79.415,
  "name": "Coca-Cola Coliseum",
  "desc": "an arena at Exhibition Place in Toronto, Ontario, Canada",
  "qid": "Q541481"
 },
 {
  "lat": 43.7246,
  "lng": -79.4473,
  "name": "Yorkdale",
  "desc": "subway station on Line 1 Yonge–University in Toronto, Ontario, Canada",
  "qid": "Q586583"
 },
 {
  "lat": 43.6614,
  "lng": -79.3965,
  "name": "Knox College",
  "desc": "postgraduate theological college federated with the University of Toronto",
  "qid": "Q593199"
 },
 {
  "lat": 43.671944444,
  "lng": -79.388888888,
  "name": "Four Seasons Hotel and Residences Toronto",
  "desc": "skyscraper in Toronto, Canada",
  "qid": "Q593320"
 },
 {
  "lat": 43.6695,
  "lng": -79.3939,
  "name": "Four Seasons Hotel and Residences Toronto",
  "desc": "skyscraper in Toronto, Canada",
  "qid": "Q593320"
 },
 {
  "lat": 43.656111111,
  "lng": -79.380277777,
  "name": "Sankofa Square",
  "desc": "public square in Toronto",
  "qid": "Q607810"
 },
 {
  "lat": 43.657694444,
  "lng": -79.380194444,
  "name": "Toronto Metropolitan University",
  "desc": "public research university located in Toronto, Ontario, Canada",
  "qid": "Q611723"
 },
 {
  "lat": 43.67,
  "lng": -79.3862,
  "name": "One Bloor East",
  "desc": "skyscraper in Toronto, Ontario, Canada",
  "qid": "Q612340"
 },
 {
  "lat": 43.648055555,
  "lng": -79.511388888,
  "name": "Royal York",
  "desc": "station on the Bloor–Danforth subway line in Toronto, Ontario, Canada",
  "qid": "Q613166"
 },
 {
  "lat": 43.66757222,
  "lng": -79.39468333,
  "name": "Royal Ontario Museum",
  "desc": "museum of world culture and natural history in Toronto, Ontario, Canada",
  "qid": "Q649250"
 },
 {
  "lat": 43.6597,
  "lng": -79.3889,
  "name": "MaRS Discovery District",
  "desc": "scientific research centre in Toronto",
  "qid": "Q1882212"
 },
 {
  "lat": 43.642841,
  "lng": -79.380623,
  "name": "Maple Leaf Square",
  "desc": "Public square in South Core, Toronto, Canada",
  "qid": "Q1892072"
 },
 {
  "lat": 43.6488,
  "lng": -79.3781,
  "name": "One King Street West",
  "desc": "condo hotel in the financial district in Toronto",
  "qid": "Q2024006"
 },
 {
  "lat": 43.6429,
  "lng": -79.3765,
  "name": "Pinnacle Centre",
  "desc": "condominium tower complex in Toronto, Ontario",
  "qid": "Q2095908"
 },
 {
  "lat": 43.664444444,
  "lng": -79.399444444,
  "name": "John P. Robarts Library",
  "desc": "central library of the University of Toronto specialized in the humanities and social sciences",
  "qid": "Q2156146"
 },
 {
  "lat": 43.7715649,
  "lng": -79.512088,
  "name": "2010 Rogers Cup (men)",
  "desc": "men's tennis tournament",
  "qid": "Q2161982"
 },
 {
  "lat": 43.794722222,
  "lng": -79.115166666,
  "name": "Rouge River",
  "desc": "river in the Greater Toronto Area, Ontario, Canada",
  "qid": "Q2169206"
 },
 {
  "lat": 43.649,
  "lng": -79.386,
  "name": "Shangri-La Toronto",
  "desc": "high-rise building in Toronto",
  "qid": "Q2276983"
 },
 {
  "lat": 43.65122,
  "lng": -79.38458,
  "name": "Sheraton Centre Toronto Hotel",
  "desc": "building in Toronto, Canada",
  "qid": "Q2278240"
 },
 {
  "lat": 43.651111111,
  "lng": -79.384166666,
  "name": "Sheraton Centre Toronto Hotel",
  "desc": "building in Toronto, Canada",
  "qid": "Q2278240"
 },
 {
  "lat": 43.646665,
  "lng": -79.37603,
  "name": "Meridian Hall",
  "desc": "performing arts building in Toronto, Ontario, Canada",
  "qid": "Q2302468"
 },
 {
  "lat": 43.646835,
  "lng": -79.390221,
  "name": "TIFF Lightbox",
  "desc": "The headquarters of the Toronto International Film Festival in Toronto, Ontario, Canada",
  "qid": "Q2384310"
 },
 {
  "lat": 43.656013204,
  "lng": -79.49539641,
  "name": "Teiaiagon",
  "desc": "Iroquoian village in Ontario, Canada",
  "qid": "Q2400428"
 },
 {
  "lat": 43.6433,
  "lng": -79.3809,
  "name": "Telus Tower",
  "desc": "commercial offices in Toronto, Ontario",
  "qid": "Q2402458"
 },
 {
  "lat": 43.677,
  "lng": -79.3971,
  "name": "Avenue Road Church",
  "desc": "church in Ontario, Canada",
  "qid": "Q4828203"
 },
 {
  "lat": 43.7386132,
  "lng": -79.6270385,
  "name": "BAPS Shri Swaminarayan Mandir Toronto",
  "desc": "hindu temple in Canada",
  "qid": "Q4834612"
 },
 {
  "lat": 43.655,
  "lng": -79.497,
  "name": "Baby Point",
  "desc": "human settlement in Toronto, Ontario, Canada",
  "qid": "Q4838382"
 },
 {
  "lat": 43.6596,
  "lng": -79.3972,
  "name": "Bahen Centre for Information Technology",
  "desc": "building on the University of Toronto St. George campus, houses computer science, engineering, and mathematics departments",
  "qid": "Q4842527"
 },
 {
  "lat": 43.6518,
  "lng": -79.371,
  "name": "Bank of Upper Canada Building",
  "desc": "office in Ontario, Canada",
  "qid": "Q4856194"
 },
 {
  "lat": 43.7176,
  "lng": -79.4401,
  "name": "Bathurst Heights Secondary School",
  "desc": "high school in North York, Toronto, Ontario, Canada",
  "qid": "Q4869112"
 },
 {
  "lat": 43.7628,
  "lng": -79.4569,
  "name": "Bathurst Manor",
  "desc": "neighborhood in Toronto, Ontario, Canada",
  "qid": "Q4869120"
 },
 {
  "lat": 43.6635,
  "lng": -79.4109,
  "name": "Bathurst Street Theatre",
  "desc": "500 seat theatre in Toronto, Ontario, that is housed in a former church",
  "qid": "Q4869135"
 },
 {
  "lat": 43.6404,
  "lng": -79.4013,
  "name": "Bathurst Street Bridge",
  "desc": "bridge in Toronto, Canada",
  "qid": "Q4869132"
 },
 {
  "lat": 43.6742,
  "lng": -79.4147,
  "name": "Bathurst Street",
  "desc": "street in Ontario, Canada",
  "qid": "Q4869136"
 },
 {
  "lat": 43.73,
  "lng": -79.433,
  "name": "Baycrest",
  "desc": "hospital in Canada",
  "qid": "Q4874399"
 },
 {
  "lat": 43.777,
  "lng": -79.379,
  "name": "Bayview Village",
  "desc": "human settlement in Toronto, Ontario, Canada",
  "qid": "Q4875017"
 },
 {
  "lat": 43.7687,
  "lng": -79.3858,
  "name": "Bayview Village Shopping Centre",
  "desc": "shopping mall in Toronto, Canada",
  "qid": "Q4875020"
 },
 {
  "lat": 43.6693,
  "lng": -79.3016,
  "name": "Beach Hebrew Institute",
  "desc": "synagogue in Toronto, Canada",
  "qid": "Q4875720"
 },
 {
  "lat": 43.66925,
  "lng": -79.29835,
  "name": "Beaches International Jazz Festival",
  "desc": "music festival in Toronto, Canada",
  "qid": "Q4875855"
 },
 {
  "lat": 43.6504,
  "lng": -79.3716,
  "name": "Beard Building",
  "desc": "commercial offices, Hotel in Ontario, Canada",
  "qid": "Q4876641"
 },
 {
  "lat": 43.755,
  "lng": -79.252,
  "name": "Bendale",
  "desc": "human settlement in Scarborough, Ontario, Canada",
  "qid": "Q4887018"
 },
 {
  "lat": 43.659,
  "lng": -79.3885,
  "name": "Toronto General Hospital",
  "desc": "hospital in Canada",
  "qid": "Q2444359"
 },
 {
  "lat": 43.6702,
  "lng": -79.3872,
  "name": "Two Bloor West",
  "desc": "commercial offices in Ontario, Canada",
  "qid": "Q2462375"
 },
 {
  "lat": 43.6701,
  "lng": -79.3803,
  "name": "X Condominium",
  "desc": "high-rise condominium building in Toronto",
  "qid": "Q2597675"
 },
 {
  "lat": 43.65066,
  "lng": -79.38551,
  "name": "Four Seasons Centre for the Performing Arts",
  "desc": "performing arts building in Toronto, Canada",
  "qid": "Q2614377"
 },
 {
  "lat": 43.643032,
  "lng": -79.382958,
  "name": "Southcore Financial Centre",
  "desc": "mixed-use development in the South Core neighborhood of Toronto, Canada",
  "qid": "Q2801260"
 },
 {
  "lat": 43.6597,
  "lng": -79.4008,
  "name": "1 Spadina Crescent",
  "desc": "academic building of the University of Toronto in Toronto, Ontario, Canada",
  "qid": "Q2813519"
 },
 {
  "lat": 43.649833,
  "lng": -79.390705,
  "name": "299 Queen Street West",
  "desc": "headquarters of Bell Media in Toronto",
  "qid": "Q2815717"
 },
 {
  "lat": 43.6653,
  "lng": -79.3228,
  "name": "Ashbridge Estate",
  "desc": "historic estate in Toronto, Ontario, Canada",
  "qid": "Q2866479"
 },
 {
  "lat": 43.685,
  "lng": -79.316111111,
  "name": "Beaches—East York",
  "desc": "federal electoral district in Ontario, Canada (Since 1997)",
  "qid": "Q2892787"
 },
 {
  "lat": 43.63333333,
  "lng": -79.41666667,
  "name": "Canadian International Air Show",
  "desc": "annual air show in Toronto, Ontario, Canada",
  "qid": "Q2893699"
 },
 {
  "lat": 43.6717,
  "lng": -79.387,
  "name": "Toronto Public Library",
  "desc": "public library system in Toronto, Canada",
  "qid": "Q2901516"
 },
 {
  "lat": 43.667972222,
  "lng": -79.39625,
  "name": "The Royal Conservatory of Music",
  "desc": "music education institution based in Toronto, Ontario, Canada",
  "qid": "Q2979657"
 },
 {
  "lat": 43.65581,
  "lng": -79.41202,
  "name": "College Street",
  "desc": "east-west street in Toronto, Canada",
  "qid": "Q2982979"
 },
 {
  "lat": 43.664444444,
  "lng": -79.3975,
  "name": "Massey College",
  "desc": "graduate residential college at the University of Toronto",
  "qid": "Q2983620"
 },
 {
  "lat": 43.6607,
  "lng": -79.3954,
  "name": "Convocation Hall",
  "desc": "building on the University of Toronto St. George campus",
  "qid": "Q2996437"
 },
 {
  "lat": 43.6869,
  "lng": -79.3064,
  "name": "Danforth Avenue",
  "desc": "major street in Toronto",
  "qid": "Q3013471"
 },
 {
  "lat": 43.770699,
  "lng": -79.504436,
  "name": "Osgoode Hall Law School",
  "desc": "law school in Toronto, Ontario",
  "qid": "Q3016196"
 },
 {
  "lat": 43.67,
  "lng": -79.404,
  "name": "The Annex",
  "desc": "human settlement in Toronto, Ontario, Canada",
  "qid": "Q3048712"
 },
 {
  "lat": 43.6667,
  "lng": -79.3928,
  "name": "Emmanuel College",
  "desc": "theological college of Victoria University in the University of Toronto",
  "qid": "Q3052646"
 },
 {
  "lat": 43.6529,
  "lng": -79.3616,
  "name": "Enoch Turner Schoolhouse",
  "desc": "ontario heritage trust historic site and museum in Toronto, Ontario Canada",
  "qid": "Q3054503"
 },
 {
  "lat": 43.6358,
  "lng": -79.4189,
  "name": "Exhibition GO Station",
  "desc": "railway station in Ontario, Canada",
  "qid": "Q3061930"
 },
 {
  "lat": 43.679,
  "lng": -79.378,
  "name": "Rosedale",
  "desc": "neighbourhood of Toronto, Ontario, Canada",
  "qid": "Q3066528"
 },
 {
  "lat": 43.695,
  "lng": -79.414,
  "name": "Forest Hill",
  "desc": "neighborhood in Toronto, Ontario, Canada",
  "qid": "Q3077160"
 },
 {
  "lat": 43.6306,
  "lng": -79.4236,
  "name": "Fort Rouillé",
  "desc": "Abandoned French fort",
  "qid": "Q3078009"
 },
 {
  "lat": 43.7553,
  "lng": -79.1983,
  "name": "Guildwood GO Station",
  "desc": "railway station in Scarborough, Canada",
  "qid": "Q3096598"
 },
 {
  "lat": 43.7803,
  "lng": -79.1306,
  "name": "Rouge Hill GO Station",
  "desc": "railway station in Ontario, Canada",
  "qid": "Q3097452"
 },
 {
  "lat": 43.655,
  "lng": -79.413,
  "name": "Little Italy",
  "desc": "neighbourhood in Toronto, Ontario, Canada",
  "qid": "Q3125013"
 },
 {
  "lat": 43.771582,
  "lng": -79.512125,
  "name": "2003 Rogers AT&T Cup",
  "desc": "women's tennis tournament",
  "qid": "Q3353956"
 },
 {
  "lat": 43.771582,
  "lng": -79.512125,
  "name": "2011 Rogers Cup (women)",
  "desc": "women's tennis tournament",
  "qid": "Q3353964"
 },
 {
  "lat": 43.652222222,
  "lng": -79.385555555,
  "name": "Osgoode Hall",
  "desc": "building in Toronto",
  "qid": "Q3357219"
 },
 {
  "lat": 43.640454,
  "lng": -79.436731,
  "name": "Parkdale",
  "desc": "neighborhood in Toronto, Ontario, Canada",
  "qid": "Q3365446"
 },
 {
  "lat": 43.6615,
  "lng": -79.3859,
  "name": "Little Glenn",
  "desc": "sculpture by Eldon Garnet",
  "qid": "Q3377147"
 },
 {
  "lat": 43.811,
  "lng": -79.138,
  "name": "Pickering—Scarborough East",
  "desc": "former federal electoral district in Ontario, Canada (2004–2015)",
  "qid": "Q3382506"
 },
 {
  "lat": 43.6481,
  "lng": -79.3383,
  "name": "Port Lands",
  "desc": "human settlement in Toronto, Ontario, Canada",
  "qid": "Q3398368"
 },
 {
  "lat": 43.7086,
  "lng": -79.3411,
  "name": "St. Clement of Ohrid Macedonian Orthodox Cathedral",
  "desc": "church in Ontario, Canada",
  "qid": "Q3401291"
 },
 {
  "lat": 43.6678,
  "lng": -79.3865,
  "name": "Regis College",
  "desc": "theological college and Jesuit Faculty of Theology at the University of Toronto",
  "qid": "Q3423622"
 },
 {
  "lat": 43.6462,
  "lng": -79.4491,
  "name": "Roncesvalles",
  "desc": "neighbourhood in Toronto",
  "qid": "Q3441634"
 },
 {
  "lat": 43.64854,
  "lng": -79.4499,
  "name": "Roncesvalles Avenue",
  "desc": "street in Toronto",
  "qid": "Q3441636"
 },
 {
  "lat": 43.7667,
  "lng": -79.25,
  "name": "Scarborough Centre",
  "desc": "former federal electoral district in Ontario, Canada (1979–2025)",
  "qid": "Q3475163"
 },
 {
  "lat": 43.692,
  "lng": -79.274,
  "name": "Scarborough Southwest",
  "desc": "federal electoral district in Ontario, Canada (Since 1997)",
  "qid": "Q3475165"
 },
 {
  "lat": 43.826,
  "lng": -79.197,
  "name": "Scarborough—Rouge River",
  "desc": "former federal electoral district in Ontario, Canada (1988–2015)",
  "qid": "Q3475170"
 },
 {
  "lat": 43.763,
  "lng": -79.207,
  "name": "Scarborough—Guildwood",
  "desc": "former federal electoral district in Ontario, Canada (2004–2025)",
  "qid": "Q3475168"
 },
 {
  "lat": 43.796,
  "lng": -79.31,
  "name": "Scarborough—Agincourt",
  "desc": "federal electoral district in Ontario, Canada (Since 1988)",
  "qid": "Q3475169"
 },
 {
  "lat": 43.7732,
  "lng": -79.4986,
  "name": "Schulich School of Business",
  "desc": "Canadian business school in Toronto",
  "qid": "Q3475561"
 },
 {
  "lat": 43.628333333,
  "lng": -79.4125,
  "name": "Froster Soak City",
  "desc": "water park in Toronto, Canada",
  "qid": "Q3487273"
 },
 {
  "lat": 43.741805555,
  "lng": -79.4815,
  "name": "Molson Canadian Rocks for Toronto",
  "desc": "2003 benefit concert in Toronto",
  "qid": "Q3510009"
 },
 {
  "lat": 43.6472,
  "lng": -79.3875,
  "name": "Royal Alexandra Theatre",
  "desc": "theatre in Toronto, Canada",
  "qid": "Q3527553"
 },
 {
  "lat": 43.7418,
  "lng": -79.4815,
  "name": "Downsview Park",
  "desc": "park in Toronto, Canada",
  "qid": "Q5303309"
 },
 {
  "lat": 43.6693,
  "lng": -79.2978,
  "name": "Dr. William D. Young Memorial",
  "desc": "memorial drinking fountain in Toronto, Canada",
  "qid": "Q5304471"
 },
 {
  "lat": 43.8119,
  "lng": -79.32,
  "name": "Dr Norman Bethune Collegiate Institute",
  "desc": "public secondary school in Toronto, Canada",
  "qid": "Q5304544"
 },
 {
  "lat": 43.6432,
  "lng": -79.4247,
  "name": "Drake Hotel",
  "desc": "hotel in Toronto, Ontario",
  "qid": "Q5305606"
 },
 {
  "lat": 43.656,
  "lng": -79.4357,
  "name": "Dufferin Mall",
  "desc": "shopping mall",
  "qid": "Q5312345"
 },
 {
  "lat": 43.7694,
  "lng": -79.4061,
  "name": "Earl Haig Secondary School",
  "desc": "high school in Toronto, Canada",
  "qid": "Q5325897"
 },
 {
  "lat": 43.6639,
  "lng": -79.4011,
  "name": "Early Learning Centre",
  "desc": "building designed by Teeple Architects intended for the children of the University of Toronto faculty and students",
  "qid": "Q5326682"
 },
 {
  "lat": 43.686,
  "lng": -79.309,
  "name": "East Danforth",
  "desc": "human settlement in Toronto, Ontario, Canada",
  "qid": "Q5328203"
 },
 {
  "lat": 43.6948,
  "lng": -79.3278,
  "name": "East York Collegiate Institute",
  "desc": "public high school in Woodbine Heights, East York, Ontario, Canada",
  "qid": "Q5329722"
 },
 {
  "lat": 43.6389,
  "lng": -79.5478,
  "name": "Eatonville",
  "desc": "human settlement in Toronto, Ontario, Canada",
  "qid": "Q5331415"
 },
 {
  "lat": 43.655,
  "lng": -79.3797,
  "name": "Ed Mirvish Theatre",
  "desc": "theatre and cinema in Toronto, Ontario, Canada",
  "qid": "Q5335183"
 },
 {
  "lat": 43.7397,
  "lng": -79.2317,
  "name": "Eglinton GO Station",
  "desc": "railway station in Ontario, Canada",
  "qid": "Q5348074"
 },
 {
  "lat": 43.74,
  "lng": -79.246,
  "name": "Eglinton East",
  "desc": "human settlement in Toronto, Ontario, Canada",
  "qid": "Q5348073"
 },
 {
  "lat": 43.7236,
  "lng": -79.2996,
  "name": "Eglinton Square Shopping Centre",
  "desc": "shopping mall in Ontario, Canada",
  "qid": "Q5348077"
 },
 {
  "lat": 43.69454,
  "lng": -79.4553,
  "name": "Little Jamaica",
  "desc": "neighbourhood in Toronto, Canada",
  "qid": "Q5348082"
 },
 {
  "lat": 43.6531,
  "lng": -79.3792,
  "name": "Elgin and Winter Garden Theatre Centre",
  "desc": "pair of stacked theatres in Toronto, Canada",
  "qid": "Q5360073"
 },
 {
  "lat": 43.6574,
  "lng": -79.381,
  "name": "Empress Hotel",
  "desc": "Located at the corner of Yonge & Gould streets in Toronto. Destroyed by fire in January 2011. The hotel was opened in 1888, and changed hands multiple times. It ceased operating as a hotel in the mid-1970s.",
  "qid": "Q5374534"
 },
 {
  "lat": 43.673611111,
  "lng": -79.368888888,
  "name": "Castle Frank",
  "desc": "subway station on the Bloor–Danforth line of the Toronto, Ontario, Canada subway",
  "qid": "Q653615"
 },
 {
  "lat": 43.653611111,
  "lng": -79.392777777,
  "name": "Art Gallery of Ontario",
  "desc": "art museum in Toronto, Ontario, Canada",
  "qid": "Q670250"
 },
 {
  "lat": 43.7263483,
  "lng": -79.4024743,
  "name": "Lawrence",
  "desc": "Toronto subway station",
  "qid": "Q681961"
 },
 {
  "lat": 43.6606617,
  "lng": -79.3827952,
  "name": "College",
  "desc": "subway station on Line 1 Yonge–University in Toronto, Ontario, Canada",
  "qid": "Q728520"
 },
 {
  "lat": 43.6664,
  "lng": -79.3629,
  "name": "Cabbagetown",
  "desc": "neighborhood in Toronto, Ontario, Canada",
  "qid": "Q738848"
 },
 {
  "lat": 43.64138889,
  "lng": -79.38916667,
  "name": "1995 NBA Draft",
  "desc": "basketball player selection",
  "qid": "Q766729"
 },
 {
  "lat": 43.7686787,
  "lng": -79.4126298,
  "name": "North York Centre",
  "desc": "subway station on the Yonge–University–Spadina line of the Toronto, Ontario, Canada subway",
  "qid": "Q773799"
 },
 {
  "lat": 43.6594,
  "lng": -79.3828,
  "name": "Aura",
  "desc": "mixed-use skyscraper in Toronto, Ontario, Canada",
  "qid": "Q774178"
 },
 {
  "lat": 43.6551,
  "lng": -79.4147,
  "name": "Italian Walk of Fame",
  "desc": "walk of fame in Toronto, Ontario",
  "qid": "Q776096"
 },
 {
  "lat": 43.646388888,
  "lng": -79.376388888,
  "name": "L Tower",
  "desc": "skyscraper in Toronto, Canada",
  "qid": "Q780392"
 },
 {
  "lat": 43.650641327,
  "lng": -79.364055888,
  "name": "Théâtre français de Toronto",
  "desc": "theatre company based in Toronto, Ontario",
  "qid": "Q3527838"
 },
 {
  "lat": 43.7764,
  "lng": -79.2583,
  "name": "Scarborough Town Centre",
  "desc": "shopping mall in Toronto, Canada",
  "qid": "Q3535124"
 },
 {
  "lat": 43.65,
  "lng": -79.406,
  "name": "Trinity—Spadina",
  "desc": "former federal electoral district in Ontario, Canada (1988–2015)",
  "qid": "Q3539297"
 },
 {
  "lat": 43.663197,
  "lng": -79.395821,
  "name": "University College",
  "desc": "founding college of the University of Toronto",
  "qid": "Q3551334"
 },
 {
  "lat": 43.652334,
  "lng": -79.387251,
  "name": "University Avenue",
  "desc": "street in Toronto, Ontario",
  "qid": "Q3551335"
 },
 {
  "lat": 43.666944444,
  "lng": -79.391944444,
  "name": "Victoria University",
  "desc": "federated college of the University of Toronto, Canada",
  "qid": "Q3551503"
 },
 {
  "lat": 43.666944444,
  "lng": -79.389722222,
  "name": "University of St. Michael's College",
  "desc": "federated college of the University of Toronto",
  "qid": "Q3551675"
 },
 {
  "lat": 43.665555555,
  "lng": -79.395833333,
  "name": "Trinity College",
  "desc": "federated college of the University of Toronto",
  "qid": "Q3551685"
 },
 {
  "lat": 43.787222222,
  "lng": -79.429444444,
  "name": "Willowdale",
  "desc": "human settlement in Toronto, Ontario, Canada",
  "qid": "Q3569134"
 },
 {
  "lat": 43.6617,
  "lng": -79.3875,
  "name": "Women's College Hospital",
  "desc": "hospital in Canada",
  "qid": "Q3569760"
 },
 {
  "lat": 43.666388888,
  "lng": -79.399166666,
  "name": "Woodsworth College",
  "desc": "constituent college of the University of Toronto",
  "qid": "Q3569852"
 },
 {
  "lat": 43.657,
  "lng": -79.3824,
  "name": "World's Biggest Bookstore",
  "desc": "former Toronto Bookstore",
  "qid": "Q3569940"
 },
 {
  "lat": 43.6644,
  "lng": -79.395,
  "name": "Wycliffe College",
  "desc": "theological college and evangelical graduate school at the University of Toronto",
  "qid": "Q3570196"
 },
 {
  "lat": 43.7137,
  "lng": -79.502,
  "name": "York South—Weston",
  "desc": "former federal electoral district in Ontario, Canada (1979–2025)",
  "qid": "Q3572599"
 },
 {
  "lat": 43.6671,
  "lng": -79.3476,
  "name": "Metropolitan Community Church of Toronto",
  "desc": "church in Ontario, Canada",
  "qid": "Q3585486"
 },
 {
  "lat": 43.654722222,
  "lng": -79.381666666,
  "name": "Church of the Holy Trinity",
  "desc": "church in Toronto, Canada",
  "qid": "Q3585843"
 },
 {
  "lat": 43.667222222,
  "lng": -79.4025,
  "name": "Tartu College",
  "desc": "Student residence, and Estonian culture centre in Ontario",
  "qid": "Q3737707"
 },
 {
  "lat": 43.6557,
  "lng": -79.3783,
  "name": "Mackenzie House",
  "desc": "municipal museum in Toronto, Ontario Canada",
  "qid": "Q3884309"
 },
 {
  "lat": 43.6748,
  "lng": -79.2839,
  "name": "George Davis House",
  "desc": "house in Toronto, Canada",
  "qid": "Q5538425"
 },
 {
  "lat": 43.6538,
  "lng": -79.403,
  "name": "Georges Vanier Secondary School",
  "desc": "public middle school in Toronto, Ontario, Canada",
  "qid": "Q5546915"
 },
 {
  "lat": 43.6618,
  "lng": -79.3936,
  "name": "Gerstein Science Information Centre",
  "desc": "building at the University of Toronto St. George campus",
  "qid": "Q5553159"
 },
 {
  "lat": 43.64281,
  "lng": -79.42312,
  "name": "Glad Day Bookshop",
  "desc": "LGBT bookstore and restaurant in Toronto, Ontario",
  "qid": "Q5566193"
 },
 {
  "lat": 43.726,
  "lng": -79.288,
  "name": "Golden Mile",
  "desc": "neighbourhood of Scarborough, Ontario, Canada",
  "qid": "Q5579656"
 },
 {
  "lat": 43.6669,
  "lng": -79.3983,
  "name": "Goldring Centre for High Performance Sport",
  "desc": "sport and exercise facility on the University of Toronto St. George campus",
  "qid": "Q5580273"
 },
 {
  "lat": 43.6861,
  "lng": -79.37,
  "name": "Government House",
  "desc": "house in Toronto, Canada",
  "qid": "Q5588907"
 },
 {
  "lat": 43.7633,
  "lng": -79.413,
  "name": "Government of Canada Building",
  "desc": "government building in North York, Toronto",
  "qid": "Q5589191"
 },
 {
  "lat": 43.691,
  "lng": -79.366,
  "name": "Governor's Bridge",
  "desc": "human settlement in Toronto, Ontario, Canada",
  "qid": "Q5589444"
 },
 {
  "lat": 43.689519,
  "lng": -79.410253,
  "name": "Grace Church on-the-Hill",
  "desc": "Anglican church in Toronto, Ontario, Canada",
  "qid": "Q5591053"
 },
 {
  "lat": 43.6778,
  "lng": -79.3319,
  "name": "Greenwood Yard",
  "desc": "rail yard of the Toronto Transit Commission",
  "qid": "Q5605073"
 },
 {
  "lat": 43.7154,
  "lng": -79.3337,
  "name": "Grenoble Public School",
  "desc": "school in Toronto, Canada",
  "qid": "Q5607494"
 },
 {
  "lat": 43.745,
  "lng": -79.196,
  "name": "Guildwood",
  "desc": "human settlement in Scarborough, Ontario, Canada",
  "qid": "Q5615890"
 },
 {
  "lat": 43.6153,
  "lng": -79.3911,
  "name": "Hanlan's Point Beach",
  "desc": "Nude beach in Toronto, Canada",
  "qid": "Q5648577"
 },
 {
  "lat": 43.6612,
  "lng": -79.4143,
  "name": "Harbord Collegiate Institute",
  "desc": "high school in Toronto, Ontario, Canada",
  "qid": "Q5654701"
 },
 {
  "lat": 43.6637,
  "lng": -79.3944,
  "name": "Hart House",
  "desc": "multi-purpose student building, theatre, and art gallery on the University of Toronto St. George campus",
  "qid": "Q5674187"
 },
 {
  "lat": 43.7201,
  "lng": -79.4143,
  "name": "Havergal College",
  "desc": "independent boarding and day school for women in Toronto, Ontario, Canada",
  "qid": "Q5683775"
 },
 {
  "lat": 43.6455,
  "lng": -79.3351,
  "name": "Hearn Generating Station",
  "desc": "decommissioned power station in Toronto, Canada",
  "qid": "Q5691682"
 },
 {
  "lat": 43.6589,
  "lng": -79.381,
  "name": "Heaslip House",
  "desc": "Toronto Metropolitan University building",
  "qid": "Q5693138"
 },
 {
  "lat": 43.77,
  "lng": -79.352,
  "name": "Henry Farm",
  "desc": "neighbourhood in Toronto, Ontario, Canada",
  "qid": "Q5721114"
 },
 {
  "lat": 43.7989,
  "lng": -79.2772,
  "name": "Henry Kelsey Senior Public School",
  "desc": "public middle school in Toronto, Canada",
  "qid": "Q5724273"
 },
 {
  "lat": 43.656,
  "lng": -79.475,
  "name": "High Park North",
  "desc": "neighborhood of Toronto",
  "qid": "Q5756002"
 },
 {
  "lat": 43.659,
  "lng": -79.446,
  "name": "Junction Triangle",
  "desc": "neighborhood of Toronto",
  "qid": "Q6311785"
 },
 {
  "lat": 43.651940111,
  "lng": -79.364864343,
  "name": "KPMB Architects",
  "desc": "Canadian architectural firm",
  "qid": "Q6335683"
 },
 {
  "lat": 43.7731,
  "lng": -79.5036,
  "name": "Keele Campus of York University",
  "desc": "main campus of York University in Toronto, Ontario, Canada",
  "qid": "Q6382764"
 },
 {
  "lat": 43.6668,
  "lng": -79.3779,
  "name": "Keg Mansion",
  "desc": "building in Toronto, Canada",
  "qid": "Q6383426"
 },
 {
  "lat": 43.7325,
  "lng": -79.2625,
  "name": "Kennedy GO Station",
  "desc": "railway station in Toronto, Canada",
  "qid": "Q6389613"
 },
 {
  "lat": 43.6587,
  "lng": -79.3793,
  "name": "Kerr Hall",
  "desc": "building on the Toronto Metropolitan University campus",
  "qid": "Q6394324"
 },
 {
  "lat": 43.6538,
  "lng": -79.403,
  "name": "Kiever Synagogue",
  "desc": "Orthodox synagogue in Toronto, Canada",
  "qid": "Q6405720"
 },
 {
  "lat": 43.64937,
  "lng": -79.37628,
  "name": "King Edward Hotel",
  "desc": "historic luxury hotel in Downtown Toronto, Ontario",
  "qid": "Q6411469"
 },
 {
  "lat": 43.6944,
  "lng": -79.5586,
  "name": "Kingsview Village",
  "desc": "neighbourhood in Toronto, Ontario, Canada",
  "qid": "Q6413692"
 },
 {
  "lat": 43.6854,
  "lng": -79.5625,
  "name": "Kipling Collegiate Institute",
  "desc": "public high school in Richview, Etobicoke, Toronto, Ontario, Canada",
  "qid": "Q6414644"
 },
 {
  "lat": 43.7852,
  "lng": -79.2814,
  "name": "Knox Presbyterian Church",
  "desc": "Presbyterian congregation in Agincourt, Ontario, Canada",
  "qid": "Q6423579"
 },
 {
  "lat": 43.6625,
  "lng": -79.4025,
  "name": "Knox Presbyterian Church",
  "desc": "church in Ontario, Canada",
  "qid": "Q6423585"
 },
 {
  "lat": 43.7861,
  "lng": -79.2783,
  "name": "Knox United Church",
  "desc": "church in Toronto, Canada",
  "qid": "Q6423626"
 },
 {
  "lat": 43.646944444,
  "lng": -79.418055555,
  "name": "Koffler Centre of the Arts",
  "desc": "art gallery in Toronto, Ontario",
  "qid": "Q6425694"
 },
 {
  "lat": 43.6645,
  "lng": -79.413,
  "name": "Koreatown",
  "desc": "neighborhood of Toronto",
  "qid": "Q6432096"
 },
 {
  "lat": 43.796,
  "lng": -79.309,
  "name": "L'Amoreaux",
  "desc": "human settlement in Scarborough, Ontario, Canada",
  "qid": "Q6455538"
 },
 {
  "lat": 43.661868,
  "lng": -79.428467,
  "name": "Saint Michael the Archangel Serbian Orthodox Church",
  "desc": "church in Toronto, Ontario",
  "qid": "Q65041785"
 },
 {
  "lat": 43.734184,
  "lng": -79.400962,
  "name": "Teddington Park",
  "desc": "neighbourhood in Toronto, Ontario, Canada",
  "qid": "Q65075544"
 },
 {
  "lat": 43.666614,
  "lng": -79.347295,
  "name": "East Chinatown",
  "desc": "neighbourhood in Toronto, Ontario, Canada",
  "qid": "Q65084136"
 },
 {
  "lat": 43.7391575,
  "lng": -79.3344418,
  "name": "Milne Hollow",
  "desc": "park",
  "qid": "Q65089747"
 },
 {
  "lat": 43.6728,
  "lng": -79.471,
  "name": "Stock Yards Village",
  "desc": "shopping mall in Ontario, Canada",
  "qid": "Q65090657"
 },
 {
  "lat": 43.684563,
  "lng": -79.455035,
  "name": "Prospect Cemetery",
  "desc": "cemetery in Toronto, Ontario, Canada",
  "qid": "Q65547321"
 },
 {
  "lat": 43.663722222,
  "lng": -79.380361111,
  "name": "statue of Alexander Wood",
  "desc": "former public statue in Toronto, Ontario, Canada",
  "qid": "Q66125148"
 },
 {
  "lat": 43.771582,
  "lng": -79.512125,
  "name": "2019 Rogers Cup",
  "desc": "women's tennis tournament",
  "qid": "Q66310542"
 },
 {
  "lat": 43.7715649,
  "lng": -79.512088,
  "name": "2018 Rogers Cup",
  "desc": "men's tennis tournament",
  "qid": "Q66310546"
 },
 {
  "lat": 43.738472222,
  "lng": -79.6035,
  "name": "Sikh Spiritual Center",
  "desc": "Sikh temple in Toronto, Ontario, Canada",
  "qid": "Q67087349"
 },
 {
  "lat": 43.650743,
  "lng": -79.3823,
  "name": "Graphic Arts Building",
  "desc": "office building in Toronto, Ontario, Canada",
  "qid": "Q67222238"
 },
 {
  "lat": 43.661853,
  "lng": -79.387604,
  "name": "Women's College Hospital Archives",
  "desc": "Department responsible for acquisition, maintenance, preservation, and access to the historical records and artifacts of the Women's College Hospital",
  "qid": "Q67648353"
 },
 {
  "lat": 43.771616,
  "lng": -79.411433,
  "name": "John McKenzie House",
  "desc": "house in Toronto, Ontario, Canada",
  "qid": "Q67687711"
 },
 {
  "lat": 43.696577,
  "lng": -79.259558,
  "name": "Birchmount Park",
  "desc": "municipal park in Toronto, Canada",
  "qid": "Q68123920"
 },
 {
  "lat": 43.664581383,
  "lng": -79.39934663,
  "name": "Cheng Yu Tung East Asian Library",
  "desc": "library in Toronto, Ontario, Canada",
  "qid": "Q68458706"
 },
 {
  "lat": 43.64908,
  "lng": -79.379988,
  "name": "Bank of Nova Scotia Building",
  "desc": "bank building in Toronto, Ontario, Canada",
  "qid": "Q68618992"
 },
 {
  "lat": 43.652277,
  "lng": -79.373965,
  "name": "86 Lombard Street",
  "desc": "morgue in Toronto, Ontario, Canada",
  "qid": "Q68800112"
 },
 {
  "lat": 43.652638,
  "lng": -79.379067,
  "name": "Bank of Montreal Branch (Yonge and Queen)",
  "desc": "bank building in Toronto, Ontario, Canada",
  "qid": "Q68800763"
 },
 {
  "lat": 43.65066,
  "lng": -79.376601,
  "name": "Excelsior Life Building",
  "desc": "office building in Toronto, Ontario, Canada",
  "qid": "Q68819784"
 },
 {
  "lat": 43.650232,
  "lng": -79.397532,
  "name": "Ontario Presents",
  "desc": "Arts service organization",
  "qid": "Q71859307"
 },
 {
  "lat": 43.666141,
  "lng": -79.393794,
  "name": "Bora Laskin Law Library",
  "desc": "law library at the University of Toronto",
  "qid": "Q73654971"
 },
 {
  "lat": 43.664416666,
  "lng": -79.399333333,
  "name": "University of Toronto Media Commons",
  "desc": "media library and archives at the University of Toronto",
  "qid": "Q75837464"
 },
 {
  "lat": 43.668055555,
  "lng": -79.3985,
  "name": "OISE Library",
  "desc": "Ontario Institute for Studies in Education Library at the University of Toronto",
  "qid": "Q76004477"
 },
 {
  "lat": 43.666388888,
  "lng": -79.3945,
  "name": "University of Toronto Music Library",
  "desc": "music library at the University of Toronto",
  "qid": "Q76005462"
 },
 {
  "lat": 43.666861111,
  "lng": -79.3905,
  "name": "University of St. Michael's College Archives",
  "desc": "archives of the University of St. Michael's College, affiliated with the University of Toronto",
  "qid": "Q76165610"
 },
 {
  "lat": 43.665138888,
  "lng": -79.395555555,
  "name": "Trinity College Archives",
  "desc": "archives of Trinity College, affiliated with the University of Toronto",
  "qid": "Q76167620"
 },
 {
  "lat": 43.666361111,
  "lng": -79.391277777,
  "name": "E.J. Pratt Library",
  "desc": "library on the campus of Victoria University, affiliated with the University of Toronto",
  "qid": "Q76176053"
 },
 {
  "lat": 43.66625,
  "lng": -79.391222222,
  "name": "Victoria University Archives",
  "desc": "archives of Victoria University on the University of Toronto St. George campus",
  "qid": "Q76178000"
 },
 {
  "lat": 43.67175,
  "lng": -79.38307,
  "name": "Consulate General of the United Arab Emirates, Toronto",
  "desc": "diplomatic mission in Toronto, Canada",
  "qid": "Q80411543"
 },
 {
  "lat": 43.6673,
  "lng": -79.3744,
  "name": "Hambourg Conservatory of Music",
  "desc": "the school of music in Toronto",
  "qid": "Q85423902"
 },
 {
  "lat": 43.677,
  "lng": -79.447,
  "name": "Corso Italia-Davenport",
  "desc": "neighbourhood in Toronto, Ontario, Canada",
  "qid": "Q85754170"
 },
 {
  "lat": 43.638928,
  "lng": -79.407793,
  "name": "Garrison crossing",
  "desc": "Canadian bridge",
  "qid": "Q85762777"
 },
 {
  "lat": 43.661028,
  "lng": -79.430649,
  "name": "Paradise Theatre",
  "desc": "cinema and live theatre space in Toronto, Canada",
  "qid": "Q85792142"
 },
 {
  "lat": 43.664934536,
  "lng": -79.399250069,
  "name": "Richard Charles Lee Canada-Hong Kong Library",
  "desc": "library in Toronto, Canada",
  "qid": "Q85797110"
 },
 {
  "lat": 43.713,
  "lng": -79.504,
  "name": "Rustic, Toronto",
  "desc": "neighbourhood in Toronto, Ontario, Canada",
  "qid": "Q85798224"
 },
 {
  "lat": 43.6546,
  "lng": -79.396379,
  "name": "First Baptist Church",
  "desc": "it is both the first Baptist congregation in Toronto and the oldest black institution in the city, located in various sites since it's founding; it has been at corner of Huron and D'Arcy Streets since 1955",
  "qid": "Q85845928"
 },
 {
  "lat": 43.637038,
  "lng": -79.420234,
  "name": "Cluff Ammunition Company",
  "desc": "munitions producer",
  "qid": "Q95007345"
 },
 {
  "lat": 43.660156,
  "lng": -79.392876,
  "name": "Terrence Donnelly Centre for Cellular & Biomolecular Research",
  "desc": "research institute and building on the University of Toronto St. George campus",
  "qid": "Q95743313"
 },
 {
  "lat": 43.6461,
  "lng": -79.3501,
  "name": "39 Commissioners Street",
  "desc": "heritage building",
  "qid": "Q96005329"
 },
 {
  "lat": 43.67,
  "lng": -79.398611111,
  "name": "Taddle Creek Park",
  "desc": "park in Toronto, Ontario, Canada",
  "qid": "Q96748440"
 },
 {
  "lat": 43.661,
  "lng": -79.406,
  "name": "Harbord Village",
  "desc": "neighbourhood in Toronto, Canada",
  "qid": "Q3127309"
 },
 {
  "lat": 43.712525,
  "lng": -79.602041666,
  "name": "Woodbine Racetrack",
  "desc": "Canadian casino and horse racing track",
  "qid": "Q3135941"
 },
 {
  "lat": 43.783611111,
  "lng": -79.185555555,
  "name": "University of Toronto Scarborough",
  "desc": "campus of the University of Toronto in Toronto, Ontario, Canada",
  "qid": "Q3137221"
 },
 {
  "lat": 43.6571,
  "lng": -79.3885,
  "name": "Hospital for Sick Children",
  "desc": "hospital in Toronto, Canada",
  "qid": "Q3140964"
 },
 {
  "lat": 43.6205,
  "lng": -79.4779,
  "name": "Humber Bay Park",
  "desc": "municipal park in Toronto, Canada",
  "qid": "Q3143165"
 },
 {
  "lat": 43.6532,
  "lng": -79.3775,
  "name": "St. Michael's Hospital",
  "desc": "hospital in Toronto, Canada",
  "qid": "Q3145237"
 },
 {
  "lat": 43.7325,
  "lng": -79.4728,
  "name": "Toronto propane explosion",
  "desc": "gas explosion in Toronto",
  "qid": "Q3149895"
 },
 {
  "lat": 43.665569,
  "lng": -79.399483,
  "name": "Innis College",
  "desc": "constituent college of the University of Toronto",
  "qid": "Q3151381"
 },
 {
  "lat": 43.654772222,
  "lng": -79.400677777,
  "name": "Kensington Market",
  "desc": "neighborhood of Toronto, Ontario, Canada",
  "qid": "Q3195260"
 },
 {
  "lat": 43.661927,
  "lng": -79.332039,
  "name": "Leslieville",
  "desc": "human settlement in Toronto, Ontario, Canada",
  "qid": "Q3236730"
 },
 {
  "lat": 43.679023,
  "lng": -79.40815,
  "name": "Spadina House",
  "desc": "manor in Toronto, Canada",
  "qid": "Q3289971"
 },
 {
  "lat": 43.6579,
  "lng": -79.3983,
  "name": "Merril Collection of Science Fiction, Speculation & Fantasy",
  "desc": "research collection",
  "qid": "Q3306599"
 },
 {
  "lat": 43.655833333,
  "lng": -79.375555555,
  "name": "Mutual Street Arena",
  "desc": "hockey arena in Toronto between 1912 and 1989",
  "qid": "Q3331013"
 },
 {
  "lat": 43.661944444,
  "lng": -79.400416666,
  "name": "New College",
  "desc": "constituent college of the University of Toronto",
  "qid": "Q3338917"
 },
 {
  "lat": 43.771582,
  "lng": -79.512125,
  "name": "2001 Rogers AT&T Cup",
  "desc": "women's tennis tournament",
  "qid": "Q3353955"
 },
 {
  "lat": 43.79,
  "lng": -79.175,
  "name": "Highland Creek",
  "desc": "human settlement in Scarborough, Ontario, Canada",
  "qid": "Q5758747"
 },
 {
  "lat": 43.8,
  "lng": -79.359,
  "name": "Hillcrest Village",
  "desc": "human settlement in Toronto, Ontario, Canada",
  "qid": "Q5762875"
 },
 {
  "lat": 43.739,
  "lng": -79.4,
  "name": "Hoggs Hollow",
  "desc": "human settlement in Toronto, Ontario, Canada",
  "qid": "Q5877300"
 },
 {
  "lat": 43.7184,
  "lng": -79.3729,
  "name": "Holland Bloorview Kids Rehabilitation Hospital",
  "desc": "healthcare organization in Toronto, Canada",
  "qid": "Q5880924"
 },
 {
  "lat": 43.651618,
  "lng": -79.387681,
  "name": "Holland Bloorview Kids Rehabilitation Hospital",
  "desc": "healthcare organization in Toronto, Canada",
  "qid": "Q5880924"
 },
 {
  "lat": 43.6378,
  "lng": -79.4344,
  "name": "Holy Family Church, Toronto",
  "desc": "Catholic church in Toronto, Ontario, Canada",
  "qid": "Q5885505"
 },
 {
  "lat": 43.631861111,
  "lng": -79.471277777,
  "name": "Humber Bay Arch Bridge",
  "desc": "bridge south of Lake Shore Boulevard West in Toronto, Ontario, Canada",
  "qid": "Q5939782"
 },
 {
  "lat": 43.729444444,
  "lng": -79.609166666,
  "name": "Humber Polytechnic",
  "desc": "publicly funded college in Toronto, Ontario, Canada",
  "qid": "Q5939790"
 },
 {
  "lat": 43.6972,
  "lng": -79.5258,
  "name": "Humber Heights – Westmount",
  "desc": "human settlement in Toronto, Ontario, Canada",
  "qid": "Q5939810"
 },
 {
  "lat": 43.7243653,
  "lng": -79.4895984,
  "name": "Humber River Hospital",
  "desc": "hospital in Canada",
  "qid": "Q5939824"
 },
 {
  "lat": 43.757,
  "lng": -79.572,
  "name": "Humber Summit",
  "desc": "human settlement in Toronto, Ontario, Canada",
  "qid": "Q5939833"
 },
 {
  "lat": 43.6717,
  "lng": -79.5144,
  "name": "Humber Valley",
  "desc": "human settlement in Toronto, Ontario, Canada",
  "qid": "Q5939841"
 },
 {
  "lat": 43.6599,
  "lng": -79.4707,
  "name": "Humberside Collegiate Institute",
  "desc": "high school in High Park North, Toronto, Ontario, Canada",
  "qid": "Q5939879"
 },
 {
  "lat": 43.6477917,
  "lng": -79.3848711,
  "name": "St. Andrew",
  "desc": "subway station on the Yonge–University–Spadina line of the Toronto, Ontario, Canada subway",
  "qid": "Q1040644"
 },
 {
  "lat": 43.6508016,
  "lng": -79.3865409,
  "name": "Osgoode",
  "desc": "subway station on the Yonge–University–Spadina line of the Toronto subway",
  "qid": "Q1040650"
 },
 {
  "lat": 43.6816776,
  "lng": -79.3905037,
  "name": "Summerhill",
  "desc": "subway station on the Yonge–University–Spadina line of the Toronto subway",
  "qid": "Q1040659"
 },
 {
  "lat": 43.697936,
  "lng": -79.3972908,
  "name": "Davisville",
  "desc": "subway station on Line 1 Yonge–University in Toronto, Ontario, Canada",
  "qid": "Q1040671"
 },
 {
  "lat": 43.67646405,
  "lng": -79.388536741,
  "name": "Rosedale",
  "desc": "subway station on the Yonge–University–Spadina line of the Toronto, Ontario, Canada subway",
  "qid": "Q1040680"
 },
 {
  "lat": 43.6684465,
  "lng": -79.398844,
  "name": "St. George",
  "desc": "subway station on the Yonge–University–Spadina and Bloor–Danforth subway lines of the Toronto, Ontario, Canada subway",
  "qid": "Q1040713"
 },
 {
  "lat": 43.6548199,
  "lng": -79.3882736,
  "name": "St. Patrick",
  "desc": "subway station on the Yonge–University–Spadina line of the Toronto, Ontario, Canada subway",
  "qid": "Q1041132"
 },
 {
  "lat": 43.667222222,
  "lng": -79.403888888,
  "name": "Spadina station",
  "desc": "Toronto subway station",
  "qid": "Q1041160"
 },
 {
  "lat": 43.6655242,
  "lng": -79.3838011,
  "name": "Wellesley",
  "desc": "subway station on the Yonge–University–Spadina line of the Toronto, Ontario, Canada subway",
  "qid": "Q1041179"
 },
 {
  "lat": 43.7812974,
  "lng": -79.4158993,
  "name": "Finch",
  "desc": "Toronto subway station",
  "qid": "Q1041196"
 },
 {
  "lat": 43.6668462,
  "lng": -79.3933506,
  "name": "Museum",
  "desc": "subway station on the Yonge–University–Spadina line of the Toronto subway",
  "qid": "Q1041205"
 },
 {
  "lat": 43.6879512,
  "lng": -79.3936947,
  "name": "St. Clair",
  "desc": "subway station on the Yonge–University–Spadina line of the Toronto subway",
  "qid": "Q1041215"
 },
 {
  "lat": 43.728611111,
  "lng": -79.568333333,
  "name": "Kipling Heights",
  "desc": "urban-type settlement in Ontario, Canada",
  "qid": "Q115178259"
 },
 {
  "lat": 43.689166666,
  "lng": -79.561944444,
  "name": "Martin Grove Gardens",
  "desc": "urban-type settlement in Ontario, Canada",
  "qid": "Q115178288"
 },
 {
  "lat": 43.615833333,
  "lng": -79.486666666,
  "name": "Mimico Beach",
  "desc": "urban-type settlement in Ontario, Canada",
  "qid": "Q115178304"
 },
 {
  "lat": 43.79541,
  "lng": -79.41373,
  "name": "Newton Brook",
  "desc": "urban-type settlement in Ontario, Canada",
  "qid": "Q115178330"
 },
 {
  "lat": 43.718333333,
  "lng": -79.476666666,
  "name": "North Park",
  "desc": "urban-type settlement in Ontario, Canada",
  "qid": "Q115178338"
 },
 {
  "lat": 43.706666666,
  "lng": -79.321666666,
  "name": "Parkview Hill",
  "desc": "urban-type settlement in Ontario, Canada",
  "qid": "Q115178367"
 },
 {
  "lat": 43.753888888,
  "lng": -79.326111111,
  "name": "Parkway East",
  "desc": "urban-type settlement in Ontario, Canada",
  "qid": "Q115178368"
 },
 {
  "lat": 43.751111111,
  "lng": -79.339166666,
  "name": "Parkway West",
  "desc": "urban-type settlement in Ontario, Canada",
  "qid": "Q115178369"
 },
 {
  "lat": 43.714444444,
  "lng": -79.548055555,
  "name": "Pine Point",
  "desc": "urban-type settlement in Ontario, Canada",
  "qid": "Q115178375"
 },
 {
  "lat": 43.676666666,
  "lng": -79.5425,
  "name": "Princess Anne Manor",
  "desc": "urban-type settlement in Ontario, Canada",
  "qid": "Q115178390"
 },
 {
  "lat": 43.671666666,
  "lng": -79.555277777,
  "name": "Princess Margaret",
  "desc": "urban-type settlement in Ontario, Canada",
  "qid": "Q115178391"
 },
 {
  "lat": 43.683888888,
  "lng": -79.546944444,
  "name": "Richview Gardens",
  "desc": "urban-type settlement in Ontario, Canada",
  "qid": "Q115178397"
 },
 {
  "lat": 43.794722222,
  "lng": -79.135277777,
  "name": "Rouge Hill",
  "desc": "urban-type settlement in Ontario, Canada",
  "qid": "Q115178418"
 },
 {
  "lat": 43.685833333,
  "lng": -79.466388888,
  "name": "Silverthorne",
  "desc": "urban-type settlement in Ontario, Canada",
  "qid": "Q115178438"
 },
 {
  "lat": 43.762777777,
  "lng": -79.368888888,
  "name": "Silver Hills",
  "desc": "urban-type settlement in Ontario, Canada",
  "qid": "Q115178437"
 },
 {
  "lat": 43.641388888,
  "lng": -79.533888888,
  "name": "Six Points",
  "desc": "urban-type settlement in Ontario, Canada",
  "qid": "Q115178440"
 },
 {
  "lat": 43.7,
  "lng": -79.535555555,
  "name": "St. Phillips",
  "desc": "urban-type settlement in Ontario, Canada",
  "qid": "Q115178448"
 },
 {
  "lat": 43.773611111,
  "lng": -79.313611111,
  "name": "Sullivan",
  "desc": "urban-type settlement in Ontario, Canada",
  "qid": "Q115178462"
 },
 {
  "lat": 43.777222222,
  "lng": -79.2975,
  "name": "Tam O'Shanter",
  "desc": "urban-type settlement in Ontario, Canada",
  "qid": "Q115178467"
 },
 {
  "lat": 43.727222222,
  "lng": -79.288333333,
  "name": "The Golden Mile",
  "desc": "urban-type settlement in Ontario, Canada",
  "qid": "Q115178472"
 },
 {
  "lat": 43.703055555,
  "lng": -79.345,
  "name": "Thorncliffe",
  "desc": "urban-type settlement in Ontario, Canada",
  "qid": "Q115178476"
 },
 {
  "lat": 43.656111111,
  "lng": -79.5625,
  "name": "West Deane Park",
  "desc": "urban-type settlement in Ontario, Canada",
  "qid": "Q115178509"
 },
 {
  "lat": 43.723611111,
  "lng": -79.579722222,
  "name": "West Humber Estates",
  "desc": "urban-type settlement in Ontario, Canada",
  "qid": "Q115178512"
 },
 {
  "lat": 43.745555555,
  "lng": -79.277777777,
  "name": "Wexford Heights",
  "desc": "urban-type settlement in Ontario, Canada",
  "qid": "Q115178518"
 },
 {
  "lat": 43.742777777,
  "lng": -79.440555555,
  "name": "Wilson Heights",
  "desc": "urban-type settlement in Ontario, Canada",
  "qid": "Q115178525"
 },
 {
  "lat": 43.739166666,
  "lng": -79.453611111,
  "name": "Winston Park",
  "desc": "urban-type settlement in Ontario, Canada",
  "qid": "Q115178530"
 },
 {
  "lat": 43.709166666,
  "lng": -79.301388888,
  "name": "Woodbine Gardens",
  "desc": "urban-type settlement in Ontario, Canada",
  "qid": "Q115178531"
 },
 {
  "lat": 43.695833333,
  "lng": -79.318888888,
  "name": "Woodbine Heights",
  "desc": "urban-type settlement in Ontario, Canada",
  "qid": "Q115178532"
 },
 {
  "lat": 43.759722222,
  "lng": -79.341388888,
  "name": "York Height",
  "desc": "urban-type settlement in Ontario, Canada",
  "qid": "Q115178537"
 },
 {
  "lat": 43.7525,
  "lng": -79.544166666,
  "name": "Emery",
  "desc": "neighborhood in Toronto",
  "qid": "Q115187611"
 },
 {
  "lat": 43.789444444,
  "lng": -79.249722222,
  "name": "Malvern West",
  "desc": "dispersed rural community in Ontario, Canada",
  "qid": "Q115199930"
 },
 {
  "lat": 43.806388888,
  "lng": -79.159722222,
  "name": "Rouge Park",
  "desc": "dispersed rural community in Ontario, Canada",
  "qid": "Q115200315"
 },
 {
  "lat": 43.786666666,
  "lng": -79.470555555,
  "name": "Fisherville",
  "desc": "dispersed rural community in Ontario, Canada",
  "qid": "Q115225398"
 },
 {
  "lat": 43.812222222,
  "lng": -79.246666666,
  "name": "Browns Corners",
  "desc": "railway point in Ontario, Canada",
  "qid": "Q115232968"
 },
 {
  "lat": 43.686111111,
  "lng": -79.299722222,
  "name": "Danforth Station",
  "desc": "railway point in Ontario, Canada",
  "qid": "Q115233008"
 },
 {
  "lat": 43.716666666,
  "lng": -79.255277777,
  "name": "Scarborough Station",
  "desc": "railway point in Ontario, Canada",
  "qid": "Q115233346"
 },
 {
  "lat": 43.688333333,
  "lng": -79.556388888,
  "name": "Etobicoke",
  "desc": "geographic township in Ontario, Canada",
  "qid": "Q115261419"
 },
 {
  "lat": 43.792777777,
  "lng": -79.235833333,
  "name": "Scarborough",
  "desc": "geographic township in Ontario, Canada",
  "qid": "Q115262773"
 },
 {
  "lat": 43.717777777,
  "lng": -79.415833333,
  "name": "York",
  "desc": "geographic township in Ontario, Canada",
  "qid": "Q115263195"
 },
 {
  "lat": 43.623333333,
  "lng": -79.364444444,
  "name": "Snug Harbour",
  "desc": "natural harbour in Toronto, Ontario, Canada",
  "qid": "Q115317281"
 },
 {
  "lat": 43.6269445,
  "lng": -79.3572222,
  "name": "Ward's Island",
  "desc": "island in Ontario, Canada",
  "qid": "Q115467386"
 },
 {
  "lat": 43.6244444,
  "lng": -79.3866667,
  "name": "Mugg's Island",
  "desc": "island in Ontario, Canada",
  "qid": "Q115467615"
 },
 {
  "lat": 43.641666666,
  "lng": -79.467222222,
  "name": "Grenadier Pond",
  "desc": "pond in Ontario, Canada",
  "qid": "Q115552629"
 },
 {
  "lat": 43.658994444,
  "lng": -79.368222222,
  "name": "Royal Oak Inn, Toronto",
  "desc": "hotel in Toronto, Ontario, Canada",
  "qid": "Q115943790"
 },
 {
  "lat": 43.6569433,
  "lng": -79.4043153,
  "name": "St. Stephen-in-the-Fields Anglican Church",
  "desc": "church in Ontario, Canada",
  "qid": "Q116044899"
 },
 {
  "lat": 43.65145,
  "lng": -79.3935761,
  "name": "St. George by the Grange Anglican Church",
  "desc": "church in Toronto, Ontario",
  "qid": "Q116055817"
 },
 {
  "lat": 43.7289,
  "lng": -79.47507,
  "name": "Mount Sinai Memorial Park",
  "desc": "cemetery in Toronto, Ontario, Canada",
  "qid": "Q116230158"
 },
 {
  "lat": 43.64242,
  "lng": -79.39001,
  "name": "Toronto Marriott City Centre Hotel",
  "desc": "hotel in Toronto, Canada",
  "qid": "Q111231545"
 },
 {
  "lat": 43.67101,
  "lng": -79.44254,
  "name": "Chandos Park North",
  "desc": "park in Davenport, Toronto, Ontario, Canada",
  "qid": "Q111273915"
 },
 {
  "lat": 43.67078,
  "lng": -79.44128,
  "name": "Chandos Park South",
  "desc": "park in Davenport, Toronto, Ontario, Canada",
  "qid": "Q111273916"
 },
 {
  "lat": 43.6711,
  "lng": -79.44407,
  "name": "Beaver - Lightbourn Parkette",
  "desc": "park in Davenport, Toronto, Ontario, Canada",
  "qid": "Q111274110"
 },
 {
  "lat": 43.67051,
  "lng": -79.44038,
  "name": "Brandon Avenue Parkette",
  "desc": "park in Davenport, Toronto, Ontario, Canada",
  "qid": "Q111274171"
 },
 {
  "lat": 43.67034,
  "lng": -79.43631,
  "name": "Bartlett Parkette",
  "desc": "park in Davenport, Toronto, Ontario, Canada",
  "qid": "Q111274262"
 },
 {
  "lat": 43.665940994,
  "lng": -79.388480407,
  "name": "Cardinal Flahiff Basilian Centre",
  "desc": "building of St. Michael's College on the University of Toronto St. George campus",
  "qid": "Q111284673"
 },
 {
  "lat": 43.665257,
  "lng": -79.388741,
  "name": "Canadian Catholic Bioethics Institute",
  "desc": "Catholic research institute at St. Michael's College on the University of Toronto St. George campus",
  "qid": "Q111284746"
 },
 {
  "lat": 43.66523,
  "lng": -79.390503,
  "name": "Carr Hall, St. Michael's College",
  "desc": "university building of St. Michael's College on the University of Toronto St. George campus",
  "qid": "Q111285782"
 },
 {
  "lat": 43.665508,
  "lng": -79.389351,
  "name": "Founders House, St. Michael's College",
  "desc": "university building of St. Michael's College on the University of Toronto St. George campus",
  "qid": "Q111285845"
 },
 {
  "lat": 43.667362,
  "lng": -79.390099,
  "name": "Loretto College, St. Michael's College",
  "desc": "student residence of St. Michael's College on the University of Toronto St. George campus",
  "qid": "Q111285917"
 },
 {
  "lat": 43.664791,
  "lng": -79.390144,
  "name": "Muzzo Family Alumni Hall, St. Michael's College",
  "desc": "university building of St. Michael's College on the University of Toronto St. George campus",
  "qid": "Q111286020"
 },
 {
  "lat": 43.666355,
  "lng": -79.388908,
  "name": "Odette (Louis) Hall, St. Michael's College",
  "desc": "university building of St. Michael's College on the University of Toronto St. George campus",
  "qid": "Q111286100"
 },
 {
  "lat": 43.661186,
  "lng": -79.396263,
  "name": "Nona Macdonald Visitors Centre",
  "desc": "visitors centre on the University of Toronto St. George campus",
  "qid": "Q111295682"
 },
 {
  "lat": 43.66592,
  "lng": -79.398773,
  "name": "Innis College Student Residence",
  "desc": "student residence of Innis College on the University of Toronto St. George campus",
  "qid": "Q111296278"
 },
 {
  "lat": 43.66077,
  "lng": -79.38784,
  "name": "88 College Street, Toronto",
  "desc": "building on the University of Toronto St. George campus",
  "qid": "Q111296395"
 },
 {
  "lat": 43.66404,
  "lng": -79.389725,
  "name": "90 Wellesley Street West, Toronto",
  "desc": "building on the University of Toronto St. George campus",
  "qid": "Q111296959"
 },
 {
  "lat": 43.666687,
  "lng": -79.399101,
  "name": "121 St. George Street, Toronto",
  "desc": "building on the University of Toronto St. George campus",
  "qid": "Q111297078"
 },
 {
  "lat": 43.65564,
  "lng": -79.386772,
  "name": "123 Edward Street, Toronto",
  "desc": "building on the University of Toronto St. George campus",
  "qid": "Q111297125"
 },
 {
  "lat": 43.666901,
  "lng": -79.399216,
  "name": "123 St. George Street, Toronto",
  "desc": "building on the University of Toronto St. George campus",
  "qid": "Q111297238"
 },
 {
  "lat": 43.67043,
  "lng": -79.57513,
  "name": "Richview Cemetery",
  "desc": "cemetery in Toronto, Ontario, Canada",
  "qid": "Q111299181"
 },
 {
  "lat": 43.783966567,
  "lng": -79.186987186,
  "name": "Doris McCarthy Gallery",
  "desc": "art gallery on the University of Toronto Scarborough campus",
  "qid": "Q111359234"
 },
 {
  "lat": 43.667107,
  "lng": -79.40004,
  "name": "162 St. George Street, Toronto",
  "desc": "building on the University of Toronto St. George campus",
  "qid": "Q111364287"
 },
 {
  "lat": 43.659298,
  "lng": -79.398239,
  "name": "215 Huron Street, Toronto",
  "desc": "building on the University of Toronto St. George campus",
  "qid": "Q111364303"
 },
 {
  "lat": 43.658165,
  "lng": -79.397453,
  "name": "229 College Street, Toronto",
  "desc": "building on the University of Toronto St. George campus",
  "qid": "Q111364327"
 },
 {
  "lat": 43.658165,
  "lng": -79.397453,
  "name": "254/256 McCaul Street, Toronto",
  "desc": "building on the University of Toronto St. George campus",
  "qid": "Q111364336"
 },
 {
  "lat": 43.65881,
  "lng": -79.392502,
  "name": "263 McCaul Street, Toronto",
  "desc": "building on the University of Toronto St. George campus",
  "qid": "Q111364384"
 },
 {
  "lat": 43.664574,
  "lng": -79.400688,
  "name": "370 Huron Street, Toronto",
  "desc": "building on the University of Toronto St. George campus",
  "qid": "Q111365635"
 },
 {
  "lat": 43.666679,
  "lng": -79.402229,
  "name": "371 Bloor Street West, Toronto",
  "desc": "building on the University of Toronto St. George campus",
  "qid": "Q111365678"
 },
 {
  "lat": 43.654457,
  "lng": -79.387497,
  "name": "439 University Avenue, Toronto",
  "desc": "building on the University of Toronto St. George campus",
  "qid": "Q111366051"
 },
 {
  "lat": 43.660362,
  "lng": -79.396545,
  "name": "Physical Geography Building, University of Toronto",
  "desc": "building on the University of Toronto St. George campus",
  "qid": "Q111366199"
 },
 {
  "lat": 43.658207,
  "lng": -79.399704,
  "name": "455 Spadina Avenue, Toronto",
  "desc": "building on the University of Toronto St. George campus",
  "qid": "Q111366377"
 },
 {
  "lat": 43.664455,
  "lng": -79.402229,
  "name": "665 Spadina Avenue, Toronto",
  "desc": "building on the University of Toronto St. George campus",
  "qid": "Q111366692"
 },
 {
  "lat": 43.665718,
  "lng": -79.402649,
  "name": "703 Spadina Avenue, Toronto",
  "desc": "building on the University of Toronto St. George campus",
  "qid": "Q111366737"
 },
 {
  "lat": 43.665398,
  "lng": -79.403633,
  "name": "720 Spadina Avenue, Toronto",
  "desc": "building on the University of Toronto St. George campus",
  "qid": "Q111366760"
 },
 {
  "lat": 43.65987,
  "lng": -79.398453,
  "name": "Anthropology Building, University of Toronto",
  "desc": "building on the University of Toronto St. George campus",
  "qid": "Q111371239"
 },
 {
  "lat": 43.660656,
  "lng": -79.397339,
  "name": "Astronomy and Astrophysics Building, University of Toronto",
  "desc": "building on the University of Toronto St. George campus",
  "qid": "Q111371261"
 },
 {
  "lat": 43.66386,
  "lng": -79.396362,
  "name": "Back Campus Fields, University of Toronto",
  "desc": "multi-purpose athletics fields on the University of Toronto St. George campus",
  "qid": "Q111371348"
 },
 {
  "lat": 43.66731,
  "lng": -79.40072,
  "name": "Kimpton Saint George Hotel",
  "desc": "hotel in Toronto, Canada",
  "qid": "Q111392329"
 },
 {
  "lat": 43.64315,
  "lng": -79.4246,
  "name": "The Drake Hotel",
  "desc": "hotel in Toronto, Canada",
  "qid": "Q111392355"
 },
 {
  "lat": 43.660931,
  "lng": -79.399727,
  "name": "Bancroft Building",
  "desc": "building on the University of Toronto St. George campus",
  "qid": "Q111445116"
 },
 {
  "lat": 43.660931,
  "lng": -79.399727,
  "name": "Banting Institute",
  "desc": "building on the University of Toronto St. George campus",
  "qid": "Q111445123"
 },
 {
  "lat": 43.660412,
  "lng": -79.399994,
  "name": "Borden Building North",
  "desc": "building on the University of Toronto St. George campus",
  "qid": "Q111445135"
 },
 {
  "lat": 43.660072,
  "lng": -79.399673,
  "name": "Borden Building South",
  "desc": "building on the University of Toronto St. George campus",
  "qid": "Q111445283"
 },
 {
  "lat": 43.660431,
  "lng": -79.391762,
  "name": "C. David Naylor Building",
  "desc": "building on the University of Toronto St. George campus",
  "qid": "Q111445354"
 },
 {
  "lat": 43.660027,
  "lng": -79.397743,
  "name": "Central Steam Plant, University of Toronto",
  "desc": "building on the University of Toronto St. George campus",
  "qid": "Q111445365"
 },
 {
  "lat": 43.662945,
  "lng": -79.4002,
  "name": "Clara Benson Building",
  "desc": "building on the University of Toronto St. George campus",
  "qid": "Q111445391"
 },
 {
  "lat": 43.665028,
  "lng": -79.3993,
  "name": "Claude T. Bissell Building",
  "desc": "building on the University of Toronto St. George campus",
  "qid": "Q111445753"
 },
 {
  "lat": 43.658928,
  "lng": -79.393547,
  "name": "Communications House",
  "desc": "building on the University of Toronto St. George campus",
  "qid": "Q111445789"
 },
 {
  "lat": 43.659462,
  "lng": -79.395897,
  "name": "Cumberland House, University of Toronto",
  "desc": "building on the University of Toronto St. George campus",
  "qid": "Q111445841"
 },
 {
  "lat": 43.659634,
  "lng": -79.394691,
  "name": "D.L. Pratt Building",
  "desc": "building on the University of Toronto St. George campus",
  "qid": "Q111449798"
 },
 {
  "lat": 43.656273,
  "lng": -79.387146,
  "name": "Dentistry Building, University of Toronto",
  "desc": "building on the University of Toronto St. George campus",
  "qid": "Q111450038"
 },
 {
  "lat": 43.669674,
  "lng": -79.406075,
  "name": "Dr. Eric Jackman Institute of Child Study building",
  "desc": "building on the University of Toronto St. George campus",
  "qid": "Q111450134"
 },
 {
  "lat": 43.641013224,
  "lng": -79.43516086,
  "name": "Skyline Restaurant",
  "desc": "restaurant in Toronto's Parkdale neighbourhood",
  "qid": "Q111467377"
 },
 {
  "lat": 43.656758,
  "lng": -79.4048166,
  "name": "Toronto Fire Station 315",
  "desc": "a fire station",
  "qid": "Q111490760"
 },
 {
  "lat": 43.66391,
  "lng": -79.401146,
  "name": "Early Learning Centre, University of Toronto",
  "desc": "building on the University of Toronto St. George campus",
  "qid": "Q111512588"
 },
 {
  "lat": 43.661098,
  "lng": -79.3993,
  "name": "Earth Sciences Centre, University of Toronto",
  "desc": "building on the University of Toronto St. George campus",
  "qid": "Q111512667"
 },
 {
  "lat": 43.666605,
  "lng": -79.394575,
  "name": "Edward Johnson Building",
  "desc": "building on the University of Toronto St. George campus in Toronto, Ontario, Canada",
  "qid": "Q111512707"
 },
 {
  "lat": 43.65947,
  "lng": -79.395294,
  "name": "Electrometallurgy Lab, University of Toronto",
  "desc": "building on the University of Toronto St. George campus",
  "qid": "Q111512754"
 },
 {
  "lat": 43.659595,
  "lng": -79.395416,
  "name": "Engineering Annex, University of Toronto",
  "desc": "building on the University of Toronto St. George campus",
  "qid": "Q111512773"
 },
 {
  "lat": 43.668114,
  "lng": -79.400459,
  "name": "Enrolment Services, University of Toronto",
  "desc": "building on the University of Toronto St. George campus",
  "qid": "Q111512849"
 },
 {
  "lat": 43.658478,
  "lng": -79.39286,
  "name": "Exam Centre, University of Toronto",
  "desc": "building on the University of Toronto St. George campus",
  "qid": "Q111512858"
 },
 {
  "lat": 43.658478,
  "lng": -79.39286,
  "name": "Factor-Inwentash Faculty of Social Work",
  "desc": "building on the University of Toronto St. George campus",
  "qid": "Q111512885"
 },
 {
  "lat": 43.661152,
  "lng": -79.40049,
  "name": "Faculty Club",
  "desc": "building on the University of Toronto St. George campus",
  "qid": "Q111512926"
 },
 {
  "lat": 43.665936,
  "lng": -79.393837,
  "name": "Jackman Law Building",
  "desc": "building on the University of Toronto St. George campus",
  "qid": "Q111512960"
 },
 {
  "lat": 43.665936,
  "lng": -79.393837,
  "name": "Flavelle House",
  "desc": "building on the University of Toronto St. George campus",
  "qid": "Q111513054"
 },
 {
  "lat": 43.666691,
  "lng": -79.393959,
  "name": "Falconer Hall",
  "desc": "building on the University of Toronto St. George campus",
  "qid": "Q111513114"
 },
 {
  "lat": 43.664062,
  "lng": -79.402039,
  "name": "Fasken Building",
  "desc": "building on the University of Toronto St. George campus",
  "qid": "Q111513160"
 },
 {
  "lat": 43.660061,
  "lng": -79.392448,
  "name": "FitzGerald Building",
  "desc": "building on the University of Toronto St. George campus",
  "qid": "Q111513229"
 },
 {
  "lat": 43.658195,
  "lng": -79.397095,
  "name": "Gage Building",
  "desc": "building on the University of Toronto St. George campus",
  "qid": "Q111513410"
 },
 {
  "lat": 43.659882,
  "lng": -79.396187,
  "name": "Galbraith Building",
  "desc": "building on the University of Toronto St. George campus",
  "qid": "Q111513428"
 },
 {
  "lat": 43.660828,
  "lng": -79.400253,
  "name": "Graduate Students' Union Building, University of Toronto",
  "desc": "building on the University of Toronto St. George campus",
  "qid": "Q111513630"
 },
 {
  "lat": 43.659943,
  "lng": -79.393639,
  "name": "Haultain Building",
  "desc": "building on the University of Toronto St. George campus",
  "qid": "Q111514244"
 },
 {
  "lat": 43.659039,
  "lng": -79.392883,
  "name": "Health Sciences Building",
  "desc": "building on the University of Toronto St. George campus",
  "qid": "Q111514327"
 },
 {
  "lat": 43.662086,
  "lng": -79.39666,
  "name": "J. Robert S. Prichard Alumni House",
  "desc": "building on the University of Toronto St. George campus",
  "qid": "Q111534457"
 },
 {
  "lat": 43.667664,
  "lng": -79.400322,
  "name": "Jackman Humanities Building",
  "desc": "building on the University of Toronto St. George campus",
  "qid": "Q111534543"
 },
 {
  "lat": 43.66061,
  "lng": -79.400589,
  "name": "Koffler House",
  "desc": "building on the University of Toronto St. George campus",
  "qid": "Q111535206"
 },
 {
  "lat": 43.6614,
  "lng": -79.397812,
  "name": "Lash Miller Chemical Laboratories",
  "desc": "building on the University of Toronto St. George campus",
  "qid": "Q111535222"
 },
 {
  "lat": 43.659504,
  "lng": -79.393387,
  "name": "Lassonde Mining Building",
  "desc": "building on the University of Toronto St. George campus",
  "qid": "Q111594846"
 },
 {
  "lat": 43.659958,
  "lng": -79.391701,
  "name": "Leslie L. Dan Pharmacy Building",
  "desc": "building on the University of Toronto St. George campus",
  "qid": "Q111594867"
 },
 {
  "lat": 43.663147,
  "lng": -79.394676,
  "name": "Louis B. Stewart Observatory",
  "desc": "building on the University of Toronto St. George campus",
  "qid": "Q111595088"
 },
 {
  "lat": 43.66177,
  "lng": -79.397049,
  "name": "Macdonald-Mowat House",
  "desc": "building on the University of Toronto St. George campus",
  "qid": "Q111596836"
 },
 {
  "lat": 43.659576,
  "lng": -79.389717,
  "name": "MaRS 2 Building",
  "desc": "building on the University of Toronto St. George campus",
  "qid": "Q111597005"
 },
 {
  "lat": 43.666157,
  "lng": -79.399696,
  "name": "Max Gluskin House",
  "desc": "building on the University of Toronto St. George campus",
  "qid": "Q111597149"
 },
 {
  "lat": 43.660709,
  "lng": -79.39827,
  "name": "McLennan Physical Laboratories",
  "desc": "building on the University of Toronto St. George campus",
  "qid": "Q111597333"
 },
 {
  "lat": 43.661106,
  "lng": -79.392876,
  "name": "McMurrich Building",
  "desc": "building on the University of Toronto St. George campus",
  "qid": "Q111598462"
 },
 {
  "lat": 43.659935,
  "lng": -79.394028,
  "name": "Mechanical Engineering Building, University of Toronto",
  "desc": "building on the University of Toronto St. George campus",
  "qid": "Q111598474"
 },
 {
  "lat": 43.66074,
  "lng": -79.393738,
  "name": "Medical Sciences Building",
  "desc": "academic building on the University of Toronto's St. George campus",
  "qid": "Q111598492"
 },
 {
  "lat": 43.663101,
  "lng": -79.397606,
  "name": "Morrison Hall",
  "desc": "student residence building on the University of Toronto St. George campus",
  "qid": "Q111598531"
 },
 {
  "lat": 43.660789,
  "lng": -79.396576,
  "name": "Myhal Centre for Engineering Innovation and Entrepreneurship",
  "desc": "building on the University of Toronto St. George campus",
  "qid": "Q111598620"
 },
 {
  "lat": 43.6407,
  "lng": -79.4325,
  "name": "Epiphany and St. Mark, Parkdale",
  "desc": "church building in Toronto, Canada",
  "qid": "Q5383136"
 },
 {
  "lat": 43.6614,
  "lng": -79.5707,
  "name": "Eringate – Centennial – West Deane",
  "desc": "human settlement in Etobicoke, Ontario, Canada",
  "qid": "Q5389274"
 },
 {
  "lat": 43.675377,
  "lng": -79.382246,
  "name": "Ernest MacMillan Family Home",
  "desc": "house in Toronto, Canada",
  "qid": "Q5393496"
 },
 {
  "lat": 43.648,
  "lng": -79.5577,
  "name": "Etobicoke Centre",
  "desc": "provincial electoral district in Ontario, Canada",
  "qid": "Q5404733"
 },
 {
  "lat": 43.6502,
  "lng": -79.5224,
  "name": "Etobicoke Collegiate Institute",
  "desc": "public high school in Six Points, Etobicoke, Toronto, Ontario, Canada",
  "qid": "Q5404737"
 },
 {
  "lat": 43.7294,
  "lng": -79.5981,
  "name": "Etobicoke General Hospital",
  "desc": "hospital in Canada",
  "qid": "Q5404740"
 },
 {
  "lat": 43.7392,
  "lng": -79.5815,
  "name": "Etobicoke North",
  "desc": "provincial electoral district in Ontario, Canada",
  "qid": "Q5404745"
 },
 {
  "lat": 43.6361,
  "lng": -79.4164,
  "name": "Exhibition Loop",
  "desc": "streetcar loop in Toronto, Canada",
  "qid": "Q5420214"
 },
 {
  "lat": 43.645503,
  "lng": -79.402821,
  "name": "Factory Theatre",
  "desc": "performing arts building in Toronto, Ontario, Canada",
  "qid": "Q5428785"
 },
 {
  "lat": 43.691,
  "lng": -79.447,
  "name": "Fairbank",
  "desc": "neighbourhood in Toronto, Ontario, Canada",
  "qid": "Q5429989"
 },
 {
  "lat": 43.777777777,
  "lng": -79.344444444,
  "name": "Fairview Mall",
  "desc": "shopping mall in Toronto, Canada",
  "qid": "Q5430835"
 },
 {
  "lat": 43.645,
  "lng": -79.398,
  "name": "Fashion District",
  "desc": "commercial and residential district in Downtown Toronto, Canada",
  "qid": "Q5436727"
 },
 {
  "lat": 43.7358,
  "lng": -79.5923,
  "name": "Father Henry Carr Secondary School",
  "desc": "bill 30 catholic high school in Toronto, Ontario, Canada",
  "qid": "Q5437607"
 },
 {
  "lat": 43.5944,
  "lng": -79.5164,
  "name": "Father John Redmond Catholic Secondary School",
  "desc": "catholic high school in New Toronto, Etobicoke, Toronto, Ontario, Canada",
  "qid": "Q5437613"
 },
 {
  "lat": 43.7078,
  "lng": -79.3881,
  "name": "First Christian Reformed Church of Toronto",
  "desc": "church building in Toronto, Canada",
  "qid": "Q5452651"
 },
 {
  "lat": 43.67,
  "lng": -79.4012,
  "name": "First Church of Christ, Scientist",
  "desc": "church building in Toronto, Canada",
  "qid": "Q5452716"
 },
 {
  "lat": 43.6569,
  "lng": -79.3789,
  "name": "First Evangelical Lutheran Church of Toronto",
  "desc": "church building in Toronto, Canada",
  "qid": "Q5452978"
 },
 {
  "lat": 43.6518,
  "lng": -79.3707,
  "name": "First Toronto Post Office",
  "desc": "historic site in Ontario, Canada",
  "qid": "Q5453912"
 },
 {
  "lat": 43.6862,
  "lng": -79.4025,
  "name": "First Unitarian Congregation of Toronto",
  "desc": "church in Toronto, Canada",
  "qid": "Q5453955"
 },
 {
  "lat": 43.8019,
  "lng": -79.3179,
  "name": "L'Amoreaux Collegiate Institute",
  "desc": "public high school in L'Amoreaux, Toronto, Ontario, Canada",
  "qid": "Q6455539"
 },
 {
  "lat": 43.668694444,
  "lng": -79.3925,
  "name": "La Société",
  "desc": "restaurant in Ontario, Canada",
  "qid": "Q6465296"
 },
 {
  "lat": 43.664,
  "lng": -79.499,
  "name": "Lambton",
  "desc": "human settlement in Toronto, Ontario, Canada",
  "qid": "Q6481589"
 },
 {
  "lat": 43.6631,
  "lng": -79.5037,
  "name": "Lambton House",
  "desc": "historical house museum in Ontario, Canada.",
  "qid": "Q6481600"
 },
 {
  "lat": 43.757,
  "lng": -79.417,
  "name": "Lansing",
  "desc": "neighborhood in Toronto, Ontario, Canada",
  "qid": "Q6487427"
 },
 {
  "lat": 43.6679,
  "lng": -79.3966,
  "name": "The Glenn Gould School",
  "desc": "centre for the training of professional musicians in Toronto, Canada",
  "qid": "Q6500691"
 },
 {
  "lat": 43.722,
  "lng": -79.388,
  "name": "Lawrence Park",
  "desc": "neighborhood in Toronto, Ontario, Canada",
  "qid": "Q6504455"
 },
 {
  "lat": 43.7221,
  "lng": -79.4103,
  "name": "Lawrence Park Collegiate Institute",
  "desc": "high school in Toronto, Ontario, Canada",
  "qid": "Q6504456"
 },
 {
  "lat": 43.6991,
  "lng": -79.3504,
  "name": "Leaside Bridge",
  "desc": "bridge in Canada",
  "qid": "Q6510303"
 },
 {
  "lat": 43.708,
  "lng": -79.368,
  "name": "Leaside",
  "desc": "neighborhood in Toronto",
  "qid": "Q6510301"
 },
 {
  "lat": 43.7111,
  "lng": -79.3731,
  "name": "Leaside High School",
  "desc": "high school in Toronto, Ontario, Canada",
  "qid": "Q6510306"
 },
 {
  "lat": 43.729,
  "lng": -79.424,
  "name": "Ledbury Park",
  "desc": "neighborhood in Toronto, Ontario, Canada",
  "qid": "Q6512564"
 },
 {
  "lat": 43.6653,
  "lng": -79.4094,
  "name": "Lee's Palace",
  "desc": "Rock concert venue and nightclub in Toronto",
  "qid": "Q6512822"
 },
 {
  "lat": 43.6598,
  "lng": -79.3911,
  "name": "Leslie Dan Faculty of Pharmacy",
  "desc": "pharmacy school of the University of Toronto",
  "qid": "Q6530755"
 },
 {
  "lat": 43.8031,
  "lng": -79.2258,
  "name": "Lester B. Pearson Collegiate Institute",
  "desc": "public secondary school in Toronto, Canada",
  "qid": "Q6531802"
 },
 {
  "lat": 43.668346,
  "lng": -79.393677,
  "name": "Lillian Massey Building",
  "desc": "building of Victoria University on the University of Toronto St. George campus",
  "qid": "Q6548167"
 },
 {
  "lat": 43.65,
  "lng": -79.4356,
  "name": "Little Portugal",
  "desc": "neighborhood of Toronto",
  "qid": "Q6651410"
 },
 {
  "lat": 43.661343,
  "lng": -79.384187,
  "name": "London School of Business and Finance Canada",
  "desc": "business school in Toronto, Canada",
  "qid": "Q6670733"
 },
 {
  "lat": 43.6622321,
  "lng": -79.4625,
  "name": "Baird Park",
  "desc": "public recreational area in Toronto, Canada",
  "qid": "Q109552728"
 },
 {
  "lat": 43.645058409,
  "lng": -79.387904446,
  "name": "Glenn Gould Studio",
  "desc": "concert hall, recording studio, and event space in Toronto, Ontario, Canada",
  "qid": "Q109553453"
 },
 {
  "lat": 43.646296,
  "lng": -79.4354613,
  "name": "Public Bookcase (25 Delaney Crescent)",
  "desc": "public bookcase located on 25 Delaney Crescent",
  "qid": "Q109558415"
 },
 {
  "lat": 43.6466127,
  "lng": -79.4363136,
  "name": "Delaney Library",
  "desc": "public bookcase c/o 21 Delaney Crescent",
  "qid": "Q109558660"
 },
 {
  "lat": 43.6474159,
  "lng": -79.4363251,
  "name": "Public Bookcase (37 Wyndham St)",
  "desc": "public bookcase located on 37 Wyndham St",
  "qid": "Q109558712"
 },
 {
  "lat": 43.646712611,
  "lng": -79.433447388,
  "name": "McCormick Park",
  "desc": "park located in Toronto, Ontario, Canada",
  "qid": "Q109558746"
 },
 {
  "lat": 43.784233455,
  "lng": -79.169681435,
  "name": "Community Spirit",
  "desc": "Mural in Scarborough, Ontario, Canada",
  "qid": "Q109562827"
 },
 {
  "lat": 43.646847,
  "lng": -79.4334185,
  "name": "McCormick Park Public Bookcase",
  "desc": "public bookcase located in McCormick Park",
  "qid": "Q109564550"
 },
 {
  "lat": 43.6454886,
  "lng": -79.4234224,
  "name": "Public Bookcase (164 Dovercourt Rd)",
  "desc": "public bookcase located on 164 Dovercourt Rd",
  "qid": "Q109564594"
 },
 {
  "lat": 43.662233,
  "lng": -79.391127,
  "name": "Statue of Queen Victoria",
  "desc": "statue in Toronto, Ontario, Canada",
  "qid": "Q109577979"
 },
 {
  "lat": 43.64974,
  "lng": -79.36071,
  "name": "Fermenting Cellar",
  "desc": "Historic building in the Distillery District",
  "qid": "Q109606013"
 },
 {
  "lat": 43.650560171,
  "lng": -79.361163956,
  "name": "Maintenance Shop",
  "desc": "Historic building in the Distillery District",
  "qid": "Q109606714"
 },
 {
  "lat": 43.65051561,
  "lng": -79.359954225,
  "name": "Boiler House",
  "desc": "Historic building in the Distillery District",
  "qid": "Q109606851"
 },
 {
  "lat": 43.650382311,
  "lng": -79.359418441,
  "name": "Fire Pump House",
  "desc": "Historic building in the Distillery District",
  "qid": "Q109607007"
 },
 {
  "lat": 43.651025305,
  "lng": -79.359813648,
  "name": "Malt House and Granary",
  "desc": "Historic building in the Distillery District",
  "qid": "Q109607058"
 },
 {
  "lat": 43.6668199,
  "lng": -79.3157081,
  "name": "History",
  "desc": "concert venue located in Toronto, Ontario, Canada",
  "qid": "Q109700644"
 },
 {
  "lat": 43.668213632,
  "lng": -79.397920013,
  "name": "Bloor-Bedford Parkette",
  "desc": "public park in Toronto, Canada",
  "qid": "Q109716529"
 },
 {
  "lat": 43.667555798,
  "lng": -79.403235809,
  "name": "Paul Martel Park",
  "desc": "urban park in Toronto, Canada",
  "qid": "Q109716713"
 },
 {
  "lat": 43.668736147,
  "lng": -79.406249476,
  "name": "Gwendolyn MacEwen Parkette",
  "desc": "pocket park in Toronto, Canada",
  "qid": "Q109716760"
 },
 {
  "lat": 43.665917171,
  "lng": -79.410488282,
  "name": "Seaton Park",
  "desc": "pocket park in Toronto, Canada",
  "qid": "Q109716932"
 },
 {
  "lat": 43.666732392,
  "lng": -79.411524215,
  "name": "Ed And Anne Mirvish Parkette",
  "desc": "pocket park in Toronto, Canada",
  "qid": "Q109717115"
 },
 {
  "lat": 43.668501657,
  "lng": -79.410467936,
  "name": "St. Alban's Square",
  "desc": "urban park in Toronto, Canada",
  "qid": "Q109717132"
 },
 {
  "lat": 43.671460839,
  "lng": -79.408800915,
  "name": "Jean Sibelius Square",
  "desc": "urban park in Toronto, Canada",
  "qid": "Q109717144"
 },
 {
  "lat": 43.672602916,
  "lng": -79.39594788,
  "name": "Boswell Parkette",
  "desc": "pocket park in Toronto, Canada",
  "qid": "Q109717170"
 },
 {
  "lat": 43.669308337,
  "lng": -79.401900365,
  "name": "Huron Street Playground",
  "desc": "urban park in Toronto, Canada",
  "qid": "Q109717193"
 },
 {
  "lat": 43.65265,
  "lng": -79.38597,
  "name": "McMurtry Gardens of Justice",
  "desc": "sculpture garden in Toronto, Ontario, Canada",
  "qid": "Q110270456"
 },
 {
  "lat": 43.6527,
  "lng": -79.3869,
  "name": "Pillars of Justice",
  "desc": "sculpture in Toronto, Ontario, Canada",
  "qid": "Q110270465"
 },
 {
  "lat": 43.65257,
  "lng": -79.38612,
  "name": "Freedom of Religion",
  "desc": "sculpture in Toronto, Ontario, Canada",
  "qid": "Q110270470"
 },
 {
  "lat": 43.65291,
  "lng": -79.38521,
  "name": "Equal Before the Law",
  "desc": "sculpture in Toronto, Ontario, Canada",
  "qid": "Q110270468"
 },
 {
  "lat": 43.652669444,
  "lng": -79.386161111,
  "name": "Freedom of Expression",
  "desc": "sculpture in Toronto, Ontario, Canada",
  "qid": "Q110270472"
 },
 {
  "lat": 43.658094015,
  "lng": -79.38047756,
  "name": "Toronto Metropolitan University Archives & Special Collections",
  "desc": "archives at Toronto Metropolitan University",
  "qid": "Q110614760"
 },
 {
  "lat": 43.716424,
  "lng": -79.386599,
  "name": "Sherwood Park",
  "desc": "urban park located in Toronto, Canada",
  "qid": "Q110938718"
 },
 {
  "lat": 43.647114374,
  "lng": -79.417292696,
  "name": "Indigenous Performing Arts Alliance",
  "desc": "association serving Indigenous artists in the land commonly known as Canada",
  "qid": "Q110938829"
 },
 {
  "lat": 43.66388515,
  "lng": -79.39325314,
  "name": "University of Toronto St. George",
  "desc": "campus of the University of Toronto in downtown Toronto, Ontario, Canada",
  "qid": "Q111016452"
 },
 {
  "lat": 43.668987,
  "lng": -79.386482,
  "name": "30 Charles Street West, Toronto",
  "desc": "student residence on the University of Toronto St. George campus",
  "qid": "Q111016739"
 },
 {
  "lat": 43.668098,
  "lng": -79.38765,
  "name": "35 Charles Street West, Toronto",
  "desc": "student residence on the University of Toronto St. George campus",
  "qid": "Q111016767"
 },
 {
  "lat": 43.664242,
  "lng": -79.390411,
  "name": "39 Queen's Park Crescent East, Toronto",
  "desc": "building on the University of Toronto St. George campus",
  "qid": "Q111016861"
 },
 {
  "lat": 43.66431,
  "lng": -79.389809,
  "name": "39A Queen's Park Crescent East, Toronto",
  "desc": "building on the University of Toronto St. George campus",
  "qid": "Q111017273"
 },
 {
  "lat": 43.665012,
  "lng": -79.40181,
  "name": "40 Sussex Avenue, Toronto",
  "desc": "building on the University of Toronto St. George campus",
  "qid": "Q111017502"
 },
 {
  "lat": 43.665688,
  "lng": -79.391037,
  "name": "59 Queen's Park Crescent East, Toronto",
  "desc": "building on the University of Toronto St. George campus",
  "qid": "Q111017503"
 },
 {
  "lat": 43.668259,
  "lng": -79.392517,
  "name": "Margaret Addison Hall",
  "desc": "student residence of Victoria University on the University of Toronto St. George campus",
  "qid": "Q111095333"
 },
 {
  "lat": 43.667423,
  "lng": -79.390823,
  "name": "Rowell Jackman Hall",
  "desc": "student residence of Victoria University on the University of Toronto St. George campus",
  "qid": "Q111095551"
 },
 {
  "lat": 43.666386,
  "lng": -79.390846,
  "name": "Burwash Residence (Lower Houses)",
  "desc": "student residence of Victoria University on the University of Toronto St. George campus",
  "qid": "Q111095671"
 },
 {
  "lat": 43.66692,
  "lng": -79.39106,
  "name": "Burwash Residence (Upper Houses)",
  "desc": "student residence of Victoria University on the University of Toronto St. George campus",
  "qid": "Q111095672"
 },
 {
  "lat": 43.667114,
  "lng": -79.39296,
  "name": "Birge-Carnegie Library",
  "desc": "former library of Victoria University on the University of Toronto St. George campus",
  "qid": "Q111109211"
 },
 {
  "lat": 43.667645,
  "lng": -79.392601,
  "name": "Goldring Student Centre",
  "desc": "student centre of Victoria University on the University of Toronto St. George campus",
  "qid": "Q111109476"
 },
 {
  "lat": 43.6506609,
  "lng": -79.3885114,
  "name": "The Rex Hotel",
  "desc": "hotel, jazz and blues bar in Toronto",
  "qid": "Q111123988"
 },
 {
  "lat": 43.67010673,
  "lng": -79.3887205,
  "name": "Strangers' Burying Ground",
  "desc": "cemetery in Toronto, Ontario, Canada",
  "qid": "Q111181658"
 },
 {
  "lat": 43.667233,
  "lng": -79.392466,
  "name": "Isabel Bader Theatre",
  "desc": "theatre building of Victoria University on the University of Toronto St. George campus",
  "qid": "Q111190832"
 },
 {
  "lat": 43.666409,
  "lng": -79.392181,
  "name": "Northrop Frye Hall",
  "desc": "building of Victoria University on the University of Toronto St. George campus",
  "qid": "Q111192355"
 },
 {
  "lat": 43.666897,
  "lng": -79.392006,
  "name": "Victoria College Building",
  "desc": "administrative building of Victoria University on the University of Toronto St. George campus",
  "qid": "Q111192426"
 },
 {
  "lat": 43.665821,
  "lng": -79.397102,
  "name": "George Ignatieff Theatre",
  "desc": "theatre building of Trinity College on the University of Toronto St. George campus",
  "qid": "Q111192894"
 },
 {
  "lat": 43.665668,
  "lng": -79.396912,
  "name": "Gerald Larkin Building",
  "desc": "building of Trinity College on the University of Toronto St. George campus",
  "qid": "Q111192961"
 },
 {
  "lat": 43.664783,
  "lng": -79.396629,
  "name": "Munk School of Global Affairs and Public Policy (at Trinity College)",
  "desc": "Trinity College location of Munk School of Global Affairs and Public Policy on the University of Toronto St. George campus",
  "qid": "Q111193270"
 },
 {
  "lat": 43.66765,
  "lng": -79.398652,
  "name": "Munk School of Global Affairs and Public Policy (at the Observatory)",
  "desc": "Bloor Street West location of Munk School of Global Affairs and Public Policy on the University of Toronto St. George campus",
  "qid": "Q111193366"
 },
 {
  "lat": 43.661915,
  "lng": -79.392921,
  "name": "Canadiana Gallery",
  "desc": "building on the University of Toronto St. George campus",
  "qid": "Q111193396"
 },
 {
  "lat": 43.665134,
  "lng": -79.395561,
  "name": "Trinity College (Main Building)",
  "desc": "headquarters building of Trinity College and home to Trinity College Archives on the University of Toronto St. George campus",
  "qid": "Q111193730"
 },
 {
  "lat": 43.666889,
  "lng": -79.390266,
  "name": "Elmsley Hall, St. Michael's College",
  "desc": "student residence and constituency of St. Michael's College on the University of Toronto St. George campus",
  "qid": "Q111194422"
 },
 {
  "lat": 43.6656,
  "lng": -79.390862,
  "name": "More House, St. Michael's College",
  "desc": "student residence and constituency of St. Michael's College on the University of Toronto St. George campus",
  "qid": "Q111194505"
 },
 {
  "lat": 43.665462,
  "lng": -79.390808,
  "name": "Fisher House, St. Michael's College",
  "desc": "student residence and constituency of St. Michael's College on the University of Toronto St. George campus",
  "qid": "Q111194522"
 },